name,review_count,categories,rating,transactions,address,zipcode,display_phone,price,latitude,longitude,borough
Bourbon and Branch,153,"Bars, Venues & Event Spaces, American",4.5,[],"155 W 33rd St, New York, NY 10001",10001,(929) 419-4951,,40.75030160000001,-73.9904585,Manhattan
Anytime Kitchen ,3089,"Korean, Tapas/Small Plates, Barbeque",4.6,"['pickup', 'delivery']","23 W 32nd St, Fl 3, New York, NY 10001",10001,(646) 669-7733,$$,40.74776270790539,-73.9867793576711,Manhattan
Zou Zou’s,438,"Mediterranean, Cocktail Bars, New American",4.2,[],"385 9th Ave, Ste 85, New York, NY 10001",10001,(212) 380-8585,$$$,40.75294111375021,-73.99872428597398,Manhattan
Ci Siamo,618,"Italian, Bars, Pizza",4.4,[],"440 West 33rd St, Ste 100, New York, NY 10001",10001,(212) 219-6559,$$$,40.75240549384363,-73.9982864846782,Manhattan
Nittis,432,"Italian, Cocktail Bars, Breakfast & Brunch",4.3,"['delivery', 'pickup']","523 9th Ave, New York, NY 10018",10018,(212) 517-0939,$$,40.7567,-73.99411,Manhattan
Alligator Pear,229,"Cocktail Bars, New American",4.2,[],"150 W 30th St, New York, NY 10001",10001,(646) 868-7884,,40.74814,-73.99191,Manhattan
Calle Dao Chelsea,1151,"Cuban, Chinese, Asian Fusion",4.5,"['delivery', 'pickup']","461 W 23rd St, New York, NY 10011",10011,(212) 414-4104,$$,40.74765439999999,-74.00352547055276,Manhattan
Tavola,1521,"Italian, Pizza, Wine Bars",4.1,"['restaurant_reservation', 'pickup', 'delivery']","488 9th Ave, New York, NY 10018",10018,(212) 273-1181,$$$,40.755403,-73.994516,Manhattan
Chi Restaurant & Bar,349,"Szechuan, Cocktail Bars",4.6,"['restaurant_reservation', 'pickup', 'delivery']","492 9th Ave, New York, NY 10018",10018,(212) 918-1470,$$,40.75547,-73.99439,Manhattan
Friedman's,3171,"New American, Breakfast & Brunch, Wine Bars",4.0,"['delivery', 'pickup']","132 W 31st St, New York, NY 10001",10001,(212) 971-9400,$$,40.748298,-73.990737,Manhattan
Izakaya MEW,3110,"Tapas Bars, Sushi Bars, Izakaya",4.3,"['delivery', 'pickup']","53 W 35th St, New York, NY 10001",10001,(646) 368-9384,$$,40.750148,-73.9863203465939,Manhattan
Bar Primi Penn District,98,"Italian, Bars, Pizza",4.2,"['delivery', 'pickup']","349 W 33rd St, New York, NY 10001",10001,(212) 233-6100,,40.7524583,-73.9954517,Manhattan
Haymaker Bar and Kitchen,429,"Gastropubs, Beer Bar, Breakfast & Brunch",3.9,"['delivery', 'restaurant_reservation', 'pickup']","252 W 29th St, New York, NY 10001",10001,(646) 429-8237,$$,40.7487508496393,-73.995229748466,Manhattan
The Rutherford,17,"Cocktail Bars, American, Pizza",3.6,[],"W 33rd St & 8th Ave, New York, NY 10119",10119,(212) 629-7070,,40.75147002292612,-73.99350261924513,
Altair NYC,101,New American,4.7,[],"351 W 38th St, New York, NY 10018",10018,(212) 343-7000,,40.755718,-73.99373,Manhattan
Osamil,827,"Korean, Gastropubs, Tapas/Small Plates",4.3,['delivery'],"5 West 31st St, New York, NY 10001",10001,(212) 300-4713,$$$,40.74697,-73.9864,Manhattan
Russ & Daughters,156,"Bagels, Bakeries, Seafood",4.4,[],"502 W 34th St, New York, NY 10001",10001,(212) 475-4880,$$,40.7544987,-73.9995268,Manhattan
Shukette,521,Middle Eastern,4.4,['delivery'],"230 9th Ave, New York, NY 10001",10001,(212) 242-1803,$$$$,40.74745,-74.00041,Manhattan
Steak Frites Bistro,181,"Steakhouses, Wine Bars, French",4.5,[],"496 9th Ave, New York, NY 10018",10018,(929) 614-5070,$$$,40.75559939381978,-73.994415672668,Manhattan
The Parlour Room,179,"Cocktail Bars, Seafood, Tapas/Small Plates",4.3,"['delivery', 'pickup']","70 W 36th St, 1A, New York, NY 10018",10018,(917) 261-5495,$$,40.75066199820444,-73.986111391996,Manhattan
Kame,896,"Ramen, Japanese Curry, Salad",4.5,"['delivery', 'pickup']","330 8th Ave, New York, NY 10001",10001,(917) 391-8587,$$,40.7474881059799,-73.996648862958,Manhattan
Friedmans,924,"Breakfast & Brunch, New American, Cocktail Bars",3.9,"['delivery', 'pickup']","450 10th Ave, New York, NY 10018",10018,(212) 268-1100,$$,40.755311,-73.998389,Manhattan
Obao,4335,"Vietnamese, Thai, Asian Fusion",4.0,"['delivery', 'pickup']","647 9th Ave, New York, NY 10036",10036,(212) 245-8880,$$,40.7606544,-73.991332,Manhattan
The Tailor Public House,183,"Pubs, American",3.7,"['delivery', 'pickup']","505 8th Ave, New York, NY 10018",10018,(646) 949-4900,$$,40.753126022542,-73.9929894380382,Manhattan
VERSA,304,"New American, Gastropubs, Cocktail Bars",3.7,['delivery'],"218 W 35th St, Fl 5, New York, NY 10001",10001,(646) 850-2850,,40.75183,-73.99099,Manhattan
Witch Topokki Manhattan,79,Korean,4.3,[],"330 7th Ave, New York, NY 10001",10001,(646) 449-0388,,40.74772,-73.99324,Manhattan
Midnight by Navarro's,103,"Cocktail Bars, Wine Bars, New American",4.2,['pickup'],"75 Manhattan W Plz, New York, NY 10001",10001,(917) 905-2782,,40.752978270492264,-73.99814172171888,Manhattan
Goldie’s Tavern,40,"Gastropubs, Sports Bars, Cocktail Bars",4.3,[],"135 West 30th St, New York, NY 10001",10001,(212) 465-3437,$$,40.7481,-73.99129,Manhattan
Maggie Reillys Restaurant,123,"Pubs, American",4.2,"['delivery', 'pickup']","340 9th Ave, New York, NY 10001",10001,(646) 476-3209,$$,40.7504318,-73.9981307,Manhattan
Bea,3044,"New American, Cocktail Bars",4.2,"['restaurant_reservation', 'delivery']","403 W 43rd St, New York, NY 10036",10036,(212) 602-1910,$$,40.7591968,-73.9923361,Manhattan
Gurumé,207,"Korean, Tapas/Small Plates, Cocktail Bars",4.7,"['delivery', 'pickup']","313 W 46th St, New York, NY 10036",10036,(917) 388-2017,,40.760301,-73.988564,Manhattan
Jajaja Mexicana,87,"Mexican, Bars",4.3,['pickup'],"450 W 33rd St, Whole Foods, New York, NY 10001",10001,(917) 722-8419,,40.752826939147255,-73.99968461876813,Manhattan
Juniper Bar,731,"Cocktail Bars, New American",4.0,"['delivery', 'pickup']","237 W 35th St, New York, NY 10001",10001,(212) 967-2511,$$,40.7524014,-73.99133599999999,Manhattan
The Ragtrader & Bo Peep Cocktail and Highball Store,959,"Bars, Piano Bars, New American",4.4,"['delivery', 'pickup']","70 W 36th St 1A, 1A, New York, NY 10018",10018,(917) 261-5495,$$,40.7507108837366,-73.98621872023773,Manhattan
Blue Ribbon Sushi & Steak,37,"Sushi Bars, Steakhouses, Japanese",4.7,[],"Penn 1, New York, NY 10119",10119,(347) 929-0404,,40.751057863112614,-73.99250384384727,
Moynihan Food Hall,22,"Food Court, Bars",4.2,[],"421 8th Ave, New York, NY 10001",10001,,,40.75174959241745,-73.99588721178985,Manhattan
7th Street Burger - Times Square,236,"Burgers, Beverage Store",4.3,"['delivery', 'pickup']","485 7th Ave, New York, NY 10018",10018,,$$,40.75243161339776,-73.98932513685675,Manhattan
Peak,572,"New American, Venues & Event Spaces, Lounges",4.3,[],"30 Hudson Yards, Fl 101, New York, NY 10001",10001,(332) 204-8509,$$$$,40.753942,-74.00034,Manhattan
Whitmans Hudson Yards,330,"Burgers, Desserts, New American",3.9,"['delivery', 'pickup']","331 10th Ave, New York, NY 10001",10001,(212) 837-1416,$$,40.75173481553854,-74.00146209413181,Manhattan
In Common NYC,186,"Cafes, Breakfast & Brunch",4.4,"['delivery', 'pickup']","441 9th Ave, Ste 101, New York, NY 10001",10001,,,40.7538451305367,-73.99624099166157,Manhattan
Best Bagel & Coffee,4960,"Bagels, Coffee & Tea, Breakfast & Brunch",4.5,"['delivery', 'pickup']","225 W 35th St, New York, NY 10001",10001,(212) 564-4409,$$,40.7522683,-73.9910861,Manhattan
Her Name Is Han,2100,"Korean, Breakfast & Brunch",4.3,"['delivery', 'pickup']","17 E 31st St, New York, NY 10016",10016,(212) 779-9990,$$,40.7462615966797,-73.984733581543,Manhattan
Zoob Zib Thai Authentic Noodle Bar,570,"Thai, Noodles",4.0,"['delivery', 'pickup']","460 9th Ave, New York, NY 10018",10018,(212) 971-8530,$$,40.75438,-73.99536,Manhattan
Alessa Cucina & Bar,18,"Italian, Cocktail Bars, Venues & Event Spaces",4.7,[],"237 W 35th St, Ste B, New York, NY 10001",10001,(929) 532-2552,,40.752414070599656,-73.99133599999999,Manhattan
Kahlo,275,"New Mexican Cuisine, Tacos",4.2,"['delivery', 'pickup']","525 West 29th St, New York, NY 10001",10001,(212) 256-0083,$$$,40.752092,-74.0026757,Manhattan
Boqueria W40th,828,"Tapas/Small Plates, Spanish, Tapas Bars",4.1,"['delivery', 'pickup']","260 W 40th St, New York, NY 10018",10018,(212) 255-6047,$$$,40.75558,-73.99012,Manhattan
Shanghai time,107,Shanghainese,4.2,"['delivery', 'pickup']","273 W 38th St, New York, NY 10018",10018,(646) 351-6699,$$,40.754645,-73.991169,Manhattan
Jack Doyle's Bar & Restaurant,406,"American, Pubs, Irish",3.8,"['delivery', 'pickup']","240 W 35th St, New York, NY 10001",10001,(212) 268-1255,$$,40.752132,-73.991852,Manhattan
Zizi,275,"Mediterranean, Middle Eastern",4.3,"['delivery', 'pickup']","182 8th Ave, New York, NY 10011",10011,(646) 669-8162,,40.74293,-74.00002,Manhattan
Suram NYC,111,"Ramen, Sushi Bars",4.4,"['delivery', 'pickup']","483 10th Ave, New York, NY 10018",10018,(212) 401-0866,,40.756492,-73.998173,Manhattan
Ye's Apothecary 夜莺,797,"Szechuan, Speakeasies",4.6,[],"119 Orchard St, New York, NY 10002",10002,(929) 655-2515,$$,40.71945,-73.9898,Manhattan
Toriya,56,"Izakaya, Tapas/Small Plates",4.7,"['restaurant_reservation', 'pickup', 'delivery']","178 Stanton St, New York, NY 10002",10002,(646) 559-0559,,40.72017,-73.98399,Manhattan
The Mayfly,81,American,4.4,"['pickup', 'delivery']","269 E Houston St, New York, NY 10002",10002,(646) 449-8435,,40.72152,-73.98462,Manhattan
La Contenta Les,950,"Mexican, Bars, Breakfast & Brunch",4.5,"['pickup', 'delivery']","102 Norfolk St, New York, NY 10002",10002,(212) 432-4180,$$,40.71878,-73.98706,Manhattan
Kalye- Broome,235,Filipino,4.6,"['restaurant_reservation', 'pickup', 'delivery']","251 Broome St, New York, NY 10002",10002,(646) 422-7267,$$,40.7179,-73.98999,Manhattan
Pretty Ricky’s,81,"Bars, American",4.1,"['pickup', 'delivery']","101 Rivington St, New York, NY 10002",10002,(646) 429-3957,$$,40.719949,-73.988297,Manhattan
The Cabin NYC,713,"New American, Cocktail Bars, Breakfast & Brunch",4.1,"['restaurant_reservation', 'pickup', 'delivery']","205 E 4th St, New York, NY 10009",10009,(212) 777-0454,$$,40.723991,-73.983785,Manhattan
Excuse My French,381,"Bars, Tapas Bars, French",4.3,"['pickup', 'delivery']","96 Orchard St, New York, NY 10002",10002,(212) 780-9600,$$,40.718437,-73.989807,Manhattan
Les Enfants de Boheme,375,"French, Cocktail Bars, Wine Bars",4.3,"['restaurant_reservation', 'delivery']","177 Henry St, New York, NY 10002",10002,(646) 476-4843,$$,40.7136187,-73.9888503,Manhattan
Betty,69,"New American, Bars, Venues & Event Spaces",4.6,"['pickup', 'delivery']","193 Henry St, New York, NY 10002",10002,(646) 556-5081,$$,40.71367,-73.98785,Manhattan
Rebel Restaurant and Bar,128,Haitian,4.4,"['pickup', 'delivery']","29 Clinton St, New York, NY 10002",10002,(973) 834-8126,,40.720444,-73.984529,Manhattan
Sae Ron,44,"Korean, Desserts, Cocktail Bars",4.5,"['restaurant_reservation', 'pickup', 'delivery']","99 Stanton St, New York, NY 10002",10002,(646) 454-0848,,40.7211615,-73.9881349566141,Manhattan
Wayla,718,Thai,4.4,['delivery'],"100 Forsyth St, Basement, New York, NY 10002",10002,(212) 206-2500,$$$,40.7183,-73.9926038,Manhattan
The Orchard Room,20,"Bars, Dim Sum, Venues & Event Spaces",4.4,[],"120 Orchard St, New York, NY 10002",10002,(646) 720-9791,,40.719365,-73.989322,Manhattan
Izakaya Ronin,36,"Japanese, Tapas Bars",4.4,"['pickup', 'delivery']","69 Clinton St, New York, NY 10002",10002,(646) 882-0510,,40.719352,-73.985069,Manhattan
8282,256,Korean,4.6,[],"84 Stanton St, New York, NY 10002",10002,(929) 837-0360,,40.72161,-73.98875,Manhattan
Double Chicken Please,768,"Cocktail Bars, Burgers, Sandwiches",4.4,"['pickup', 'delivery']","115 Allen St, New York, NY 10002",10002,(646) 678-5452,$$$,40.719584,-73.990486,Manhattan
Trapizzino,350,"Italian, Wine Bars, Cocktail Bars",4.4,"['pickup', 'delivery']","144 Orchard St, New York, NY 10002",10002,(212) 475-2555,$$,40.72043,-73.98894,Manhattan
Pig and Khao,1983,"Filipino, Thai, Pan Asian",3.9,"['pickup', 'delivery']","68 Clinton St, New York, NY 10002",10002,(212) 920-4485,$$$,40.71926,-73.98475,Manhattan
LĒNA,243,"French, Wine Bars, Cocktail Bars",4.4,"['pickup', 'delivery']","137 Eldridge St, New York, NY 10002",10002,(347) 935-1897,$$,40.719135,-73.991758,Manhattan
Potluck Club 佰樂,433,"Cantonese, Asian Fusion",4.4,"['pickup', 'delivery']","133 Chrystie St, New York, NY 10002",10002,,,40.719588,-73.993519,Manhattan
Mắm,130,Vietnamese,4.3,[],"70 Forsyth St, New York, NY 10002",10002,,,40.71704,-73.99338,Manhattan
Somm Time,117,"Wine Bars, New American",4.5,['delivery'],"254 Broome St, New York, NY 10002",10002,(212) 860-0401,$$,40.7182273,-73.9899201,Manhattan
Kisa,144,Korean,4.3,[],"205 Allen St, New York, NY 10002",10002,(646) 866-8622,,40.72272,-73.989086,Manhattan
Gotham Burger Social Club,175,Burgers,4.1,[],"131 Essex St, New York, NY 10002",10002,,$$,40.720052,-73.987627,Manhattan
Ginger and Lemongrass,625,"Vietnamese, Thai, Asian Fusion",4.2,"['pickup', 'delivery']","153 Rivington St, New York, NY 10002",10002,(646) 876-1237,$$,40.71912,-73.98567,Manhattan
Beauty & Essex,4001,New American,4.0,"['pickup', 'delivery']","146 Essex St, New York City, NY 10002",10002,(212) 614-0146,$$$,40.720434786101286,-73.98686057623863,Manhattan
Joey Roses Sandwich Shoppe,138,"Sandwiches, Bars",4.6,"['pickup', 'delivery']","174 Rivington St, New York, NY 10002",10002,(646) 692-4020,,40.71902195202514,-73.98450003162947,Manhattan
Datz Deli,37,"Delis, Caribbean, Sandwiches",4.1,[],"69 Clinton St, New York, NY 10002",10002,(646) 669-7234,$$,40.71937963445847,-73.98511200342833,Manhattan
Clinton Street Baking Company,5971,"Bakeries, New American, Breakfast & Brunch",4.0,"['pickup', 'delivery']","4 Clinton St, New York, NY 10002",10002,(646) 602-6263,$$,40.721128,-73.983933,Manhattan
Holy Cow,355,"Burgers, Hot Dogs, Fast Food",4.2,"['pickup', 'delivery']","34 Canal St, New York, NY 10002",10002,(212) 774-9446,$,40.714399,-73.99073,Manhattan
Dudleys,1135,"Cafes, Breakfast & Brunch, Cocktail Bars",4.1,['delivery'],"85 Orchard St, New York, NY 10002",10002,(212) 925-7355,$$,40.71798,-73.99042,Manhattan
Ernesto’s,158,Basque,3.7,['delivery'],"259 E Broadway, New York, NY 10002",10002,(646) 692-8300,,40.71429,-73.9854371,Manhattan
BOHO's Kitchen,7,"Izakaya, Chicken Wings, Beer Bar",4.3,[],"152 Orchard St, New York, NY 10002",10002,(212) 777-0343,,40.72072,-73.98864,Manhattan
Sweet Chick,1990,"Southern, Breakfast & Brunch, Chicken Shop",4.0,"['pickup', 'delivery']","178 Ludlow St, New York, NY 10002",10002,(646) 657-0233,$$,40.7217399,-73.98739,Manhattan
Sen Saigon,26,"Vegan, Vietnamese",4.8,"['pickup', 'delivery']","150 E Broadway, New York, NY 10002",10002,(347) 969-3727,,40.714158,-73.990942,Manhattan
Forget Me Not,218,"Bars, American",4.1,"['pickup', 'delivery']","138 Division St, New York, NY 10002",10002,(646) 707-3195,$$,40.714498871349,-73.9915559401866,Manhattan
Davelle,517,"Japanese, Breakfast & Brunch, Cafes",4.1,"['pickup', 'delivery']","102 Suffolk St, New York, NY 10002",10002,(646) 988-1973,$$,40.71852,-73.98605,Manhattan
Las' Lap,187,"Caribbean, Chicken Wings, Cocktail Bars",3.8,[],"74 Orchard St, New York, NY 10002",10002,(646) 484-6002,$$,40.7176139,-73.990234,Manhattan
Carlota,15,"Tapas Bars, Tapas/Small Plates, Vermouth Bars",4.9,[],"14A Orchard St, New York, NY 10002",10002,(917) 488-0943,,40.715038,-73.991693,Manhattan
Delancey St Pizza,1,Pizza,5.0,[],"102 Clinton St, New York, NY 10002",10002,(646) 398-7814,,40.71807976892998,-73.98549262539048,Manhattan
Patacon Pisao,444,"Venezuelan, Sandwiches",4.1,"['pickup', 'delivery']","139 Essex St, New York, NY 10002",10002,(646) 678-5913,$,40.720392,-73.987561,Manhattan
Katz's Delicatessen,16187,"Delis, Sandwiches, Soup",4.1,"['pickup', 'delivery']","205 E Houston St, New York, NY 10002",10002,(212) 254-2246,$$,40.72221127798768,-73.98747940414935,Manhattan
Birria LES,162,"Halal, Tacos",4.2,[],"127 Rivington St, New York, NY 10002",10002,(646) 789-7777,$$,40.719628849397935,-73.98711402147562,Manhattan
Chinato,39,"Cocktail Bars, Wine Bars, Seafood",4.6,[],"108 Stanton St, New York, NY 10002",10002,,,40.721255,-73.987518,Manhattan
Kopitiam,1075,"Malaysian, Desserts, Breakfast & Brunch",4.1,"['pickup', 'delivery']","151 E Broadway, New York, NY 10002",10002,(646) 609-3785,$$,40.71387,-73.99091,Manhattan
Eastpoint,119,"Tacos, Sports Bars, American",4.3,"['pickup', 'delivery']","25 Ave B, New York, NY 10009",10009,(646) 882-0593,$$,40.72228,-73.98311,Manhattan
Kong Sihk Tong 港食堂,937,"Chinese, Hong Kong Style Cafe",4.2,"['pickup', 'delivery']","65 Bayard St, New York, NY 10013",10013,(646) 850-6140,$$,40.715433714742154,-73.9981186386701,Manhattan
87 Ludlow,13,"Filipino, Spanish, Cocktail Bars",4.5,[],"87 Ludlow St, New York, NY 10002",10002,(212) 510-7605,,40.718372,-73.989485,Manhattan
Kiki's,940,"Greek, Mediterranean",4.1,"['pickup', 'delivery']","130 Division St, New York, NY 10002",10002,(646) 882-7052,$$,40.7144971858255,-73.9918553931336,Manhattan
Da Andrea - Greenwich Village,2455,"Italian, Mediterranean, Breakfast & Brunch",4.4,"['pickup', 'restaurant_reservation', 'delivery']","35 W 13th St, New York, NY 10011",10011,(212) 367-1979,$$,40.736287,-73.995865,Manhattan
FERNS,310,"Cocktail Bars, New American, Breakfast & Brunch",4.5,['delivery'],"166 1st Ave, New York, NY 10009",10009,(646) 998-5034,$$,40.72881612591204,-73.9840489193202,Manhattan
Olio e Più,6172,"Pizza, Italian, Cocktail Bars",4.5,"['delivery', 'pickup']","3 Greenwich Ave, New York, NY 10014",10014,(212) 243-6546,$$,40.73406231935954,-73.99999980859876,Manhattan
Soothr,1504,"Thai, Noodles, Cocktail Bars",4.5,"['pickup', 'delivery']","204 E 13th St, New York, NY 10003",10003,(212) 844-9789,$$,40.732259,-73.987363,Manhattan
Cathédrale Restaurant,566,"French, Mediterranean",3.7,"['pickup', 'delivery']","112 E 11th St, New York City, NY 10003",10003,(212) 888-1093,$$$$,40.731516,-73.989501,Manhattan
Ichibantei,336,"Japanese, Steakhouses",3.9,"['pickup', 'delivery']","100 3rd Ave, New York, NY 10003",10003,(917) 965-2327,$$,40.73259680054533,-73.9880024,Manhattan
LoveMama,6925,"Thai, Malaysian, Vietnamese",4.4,"['pickup', 'restaurant_reservation', 'delivery']","174 2nd Ave, New York, NY 10003",10003,(212) 254-5370,$$,40.730408722512074,-73.98612673033213,Manhattan
Nan Xiang Soup Dumplings - East Village,178,"Dim Sum, Noodles",4.8,"['pickup', 'delivery']","15 St Marks Pl, New York, NY 10003",10003,(212) 970-8788,$$,40.729361,-73.988827,Manhattan
White Oak Tavern,484,"New American, Whiskey Bars, Cocktail Bars",4.2,"['pickup', 'delivery']","21 Waverly Pl, New York, NY 10003",10003,(212) 260-2604,$$,40.7303892,-73.99462,Manhattan
Raku,1729,"Japanese, Noodles",4.4,"['delivery', 'pickup']","342 E 6th St, New York, NY 10003",10003,(212) 228-1324,$$,40.7264988089246,-73.9866526052356,Manhattan
Amélie,2968,"French, Wine Bars",4.3,"['pickup', 'delivery']","22 W 8th St, New York, NY 10011",10011,(212) 533-2962,$$$,40.7327,-73.99766,Manhattan
Thursday Kitchen,1835,"Korean, New American, Tapas/Small Plates",4.4,"['delivery', 'pickup']","424 E 9th St, New York, NY 10009",10009,,$$,40.72761,-73.98373,Manhattan
Ippudo NY,10788,Ramen,4.1,"['pickup', 'delivery']","65 4th Ave, New York, NY 10003",10003,(212) 388-0088,$$,40.730925,-73.990254,Manhattan
ARIARI,339,"Korean, Tapas/Small Plates, Gastropubs",4.5,[],"119 1st Ave, New York, NY 10003",10003,(646) 422-7466,,40.727283504010266,-73.9858313,Manhattan
Veselka,3300,"Diners, Ukrainian",4.0,"['pickup', 'delivery']","144 2nd Ave, New York, NY 10003",10003,(212) 228-9682,$$,40.729036,-73.98712,Manhattan
The Cabin NYC,713,"New American, Cocktail Bars, Breakfast & Brunch",4.1,"['restaurant_reservation', 'delivery', 'pickup']","205 E 4th St, New York, NY 10009",10009,(212) 777-0454,$$,40.723991,-73.983785,Manhattan
Salma,214,"Lebanese, Breakfast & Brunch, Sandwiches",4.5,"['delivery', 'pickup']","351 E 12th St, New York, NY 10003",10003,(917) 261-4907,$$,40.730369942268375,-73.9837222575225,Manhattan
Pranakhon Thai Restaurant,532,"Thai, Salad, Noodles",4.5,"['delivery', 'pickup']","88 University Pl, New York, NY 10003",10003,(212) 786-6789,$$,40.73369,-73.99316,Manhattan
Fish Cheeks,1731,"Seafood, Thai, Live/Raw Food",4.4,"['delivery', 'pickup']","55 Bond St, New York, NY 10012",10012,(212) 677-2223,$$,40.7258,-73.9927,Manhattan
Little Ruby's East Village,482,"Australian, Breakfast & Brunch, Burgers",4.4,"['pickup', 'delivery']","198 E 11th St, New York, NY 10003",10003,(646) 998-4265,$$,40.7310755,-73.9883598,Manhattan
Kimura,472,"Japanese, Hot Pot, Sushi Bars",4.5,"['delivery', 'pickup']","31 St Marks Pl, New York, NY 10003",10003,(917) 905-1864,$$$,40.72904325062745,-73.9882174,Manhattan
Claud,147,Restaurants,4.3,[],"90 E 10th St, New York, NY 10003",10003,(917) 261-6791,,40.73088,-73.98968,Manhattan
The Standard East Village,4,Pop-Up Restaurants,4.8,[],"25 Cooper Sq, New York, NY 10003",10003,(212) 475-5700,,40.7278622696929,-73.99082132730517,Manhattan
Bad Hombre,16,Mexican,4.8,[],"29 Second Ave, New York, NY 10003",10003,(212) 677-1030,,40.724695,-73.990888,Manhattan
Han Dynasty,1412,"Szechuan, Noodles, Beer Bar",3.9,"['delivery', 'pickup']","90 3rd Ave, New York, NY 10003",10003,(212) 390-8685,$$,40.732072,-73.988074,Manhattan
Madame Vo,1171,Vietnamese,4.0,"['pickup', 'delivery']","212 E 10th St, New York, NY 10003",10003,(917) 261-2115,$$,40.72925,-73.98612,Manhattan
3 Times,272,"Dim Sum, Shanghainese, Noodles",4.0,"['delivery', 'pickup']","818 Broadway, New York, NY 10003",10003,(646) 609-3040,$$,40.73285,-73.99104,Manhattan
Uluh,1030,"Tea Rooms, Asian Fusion, Szechuan",4.4,"['restaurant_reservation', 'delivery', 'pickup']","152 2nd Ave, Ste A, New York, NY 10003",10003,(917) 261-5963,$$$,40.729354,-73.98665,Manhattan
Penny,33,"Venues & Event Spaces, Seafood, Wine Bars",4.3,[],"90 E 10th St, New York, NY 10003",10003,,,40.730806,-73.989727,Manhattan
886,755,"Taiwanese, Asian Fusion",4.0,"['delivery', 'pickup']","26 Saint Marks Pl, New York, NY 10003",10003,(646) 882-0231,$$,40.72880795067701,-73.988719,Manhattan
Taboonette,1084,"Mediterranean, Middle Eastern, New American",4.3,"['pickup', 'delivery']","30 E 13th St, New York, NY 10003",10003,(212) 510-7881,$$,40.7346038818359,-73.9928283691406,Manhattan
Kyuramen - Union Square,755,"Ramen, Japanese Curry",4.2,"['restaurant_reservation', 'delivery']","210 E 14th St, New York, NY 10003",10003,(646) 692-4120,$$,40.732758,-73.986842,Manhattan
Yellow Rose,199,Tex-Mex,4.2,"['pickup', 'delivery']","102 3rd Ave, New York, NY 10003",10003,(212) 529-8880,,40.732575,-73.98806909999999,Manhattan
Szechuan Mountain House,807,Szechuan,4.3,"['delivery', 'pickup']","23 St Marks Pl, New York, NY 10003",10003,(917) 388-3866,$$,40.72911,-73.98858,Manhattan
Upstate Craft Beer & Oyster Bar,2096,Seafood,4.4,['delivery'],"95 1st Ave, New York, NY 10003",10003,(646) 791-5400,$$,40.726373,-73.986557,Manhattan
The Grey Dog - Union Square,1260,"Breakfast & Brunch, American, Comfort Food",3.9,"['pickup', 'delivery']","90 University Pl, New York, NY 10003",10003,(212) 414-4739,$$,40.733828,-73.993052,Manhattan
Nuovo York Pizza,82,Pizza,4.6,"['pickup', 'delivery']","105 E 9th St, New York, NY 10003",10003,(646) 476-2428,,40.7305,-73.99008,Manhattan
The Winslow,739,"Pubs, British, Cocktail Bars",4.5,['delivery'],"243 E 14th St, New York, NY 10003",10003,(212) 777-7717,$$,40.73278,-73.98522,Manhattan
Café Maud,37,"Cafes, Bars, Pizza",4.3,"['pickup', 'delivery']","132 2nd Ave, New York, NY 10003",10003,,,40.72867270000141,-73.98738869999997,Manhattan
The Gray Mare,140,"Cocktail Bars, American, Lounges",4.4,['delivery'],"61 2nd Ave, New York, NY 10003",10003,(212) 388-0662,$$,40.726035,-73.989936,Manhattan
Little Rebel,89,"New American, Cocktail Bars, Breakfast & Brunch",4.0,"['pickup', 'delivery']","219 2nd Ave, New York, NY 10003",10003,(646) 922-7325,,40.73203,-73.98543,Manhattan
The Dolar Shop,486,"Hot Pot, Chinese",4.5,"['restaurant_reservation', 'pickup']","55 3rd Ave, New York, NY 10003",10003,(646) 590-0034,$$$,40.731032,-73.988569,Manhattan
C as in Charlie,337,"Korean, Tapas/Small Plates, Southern",4.5,[],"5 Bleecker St, New York, NY 10012",10012,,,40.72545,-73.99269,Manhattan
Thai Villa,5127,Thai,4.4,"['pickup', 'delivery']","5 E 19th St, G Floor, New York, NY 10003",10003,(212) 802-9999,$$,40.73902,-73.99065,Manhattan
Third Kingdom,44,"Vegan, Beer Bar, Desserts",4.6,"['pickup', 'delivery']","21 E 7th St, New York, NY 10003",10003,(833) 328-4588,$$$,40.728661150695935,-73.9893618,Manhattan
Okiboru House of Udon,148,Japanese,4.2,"['pickup', 'delivery']","124 2nd Ave, New York, NY 10003",10003,(678) 498-6530,,40.72841107177022,-73.98772392234153,Manhattan
Odd Sister,72,"Cocktail Bars, Diners, Coffee & Tea",4.3,"['pickup', 'delivery']","45 Mercer St, New York, NY 10013",10013,(212) 966-9288,,40.721695,-74.001446,Manhattan
Pylos,1276,Greek,4.3,"['pickup', 'delivery']","128 E 7th St, New York, NY 10009",10009,(212) 473-0220,$$$,40.72608,-73.98415,Manhattan
Linen Hall,179,"Bars, American",3.9,['delivery'],"101 3rd Ave, New York, NY 10003",10003,(646) 602-9316,$$,40.7323193887187,-73.9876905276754,Manhattan
Boucherie Union Square,1674,"Steakhouses, French, Cocktail Bars",4.4,"['pickup', 'delivery']","225 Park Ave S, New York, NY 10003",10003,(212) 353-0200,$$$,40.73725824850519,-73.9882252705524,Manhattan
WarrenPeace,46,"Cocktail Bars, Mediterranean",4.7,[],"77 Warren St, New York, NY 10007",10007,(845) 592-5334,$$,40.715022,-74.010284,Manhattan
Ye's Apothecary 夜莺,797,"Szechuan, Speakeasies",4.6,[],"119 Orchard St, New York, NY 10002",10002,(929) 655-2515,$$,40.71945,-73.9898,Manhattan
Olio e Più,6172,"Pizza, Italian, Cocktail Bars",4.5,"['pickup', 'delivery']","3 Greenwich Ave, New York, NY 10014",10014,(212) 243-6546,$$,40.73406231935954,-73.99999980859876,Manhattan
Kalye- Broome,235,Filipino,4.6,"['delivery', 'pickup', 'restaurant_reservation']","251 Broome St, New York, NY 10002",10002,(646) 422-7267,$$,40.7179,-73.98999,Manhattan
London & Martin,45,"Gastropubs, Bars, Venues & Event Spaces",4.4,[],"6 Stone St, New York, NY 10004",10004,(646) 370-1330,,40.70396227151994,-74.01242195619244,Manhattan
Carne Mare,316,"Steakhouses, Italian, Seafood",4.4,['delivery'],"89 South St, Pier 17, New York, NY 10038",10038,(212) 280-4600,,40.70568649199326,-74.00218961453646,Manhattan
Capoeira Restaurant,31,"Brazilian, Portuguese, Empanadas",4.7,"['delivery', 'pickup']","24 Mercer St, Jersey City, NJ 07302",7302,(973) 536-4146,,40.7182156,-74.04330039999999,
Mikado,156,Sushi Bars,4.8,"['delivery', 'pickup']","164 Pearl St, New York, NY 10005",10005,(212) 871-7499,,40.70589172111019,-74.0074034,Manhattan
Fishmarket Restaurant,669,"Seafood, Dive Bars, Malaysian",4.3,['delivery'],"111 South St, New York, NY 10038",10038,(917) 363-8101,$$,40.70717,-74.00192,Manhattan
Golden Wuish The Duck House,196,"Asian Fusion, Dim Sum, Cocktail Bars",4.4,"['delivery', 'pickup']","6 Platt St, New York, NY 10038",10038,(212) 273-9296,$$$,40.707324,-74.006407,Manhattan
Mắm,130,Vietnamese,4.3,[],"70 Forsyth St, New York, NY 10002",10002,,,40.71704,-73.99338,Manhattan
Mezze on the River,221,"Seafood, Mediterranean",4.2,"['delivery', 'pickup']","375 S End Ave, New York, NY 10280",10280,(212) 432-1451,$$$,40.7112473,-74.0176642,Manhattan
Odd Sister,72,"Cocktail Bars, Diners, Coffee & Tea",4.3,"['delivery', 'pickup']","45 Mercer St, New York, NY 10013",10013,(212) 966-9288,,40.721695,-74.001446,Manhattan
Hometown Bar-B-Que,1728,"Barbeque, Smokehouse",4.0,"['delivery', 'pickup']","454 Van Brunt St, Brooklyn, NY 11231",11231,(347) 294-4644,$$,40.67486,-74.01602,Brooklyn
Raku,1067,"Japanese, Noodles",4.5,"['delivery', 'pickup']","48 Macdougal St, New York, NY 10012",10012,(212) 989-4797,$$,40.7272479,-74.00253944171621,Manhattan
ONDO Jersey City,239,Korean,4.4,[],"3 2nd St, Jersey City, NJ 07302",7302,(201) 721-6771,$$$,40.72084,-74.03199,
Red Hook Tavern,254,"American, Bars",4.1,"['delivery', 'pickup']","329 Van Brunt St, Brooklyn, NY 11231",11231,(917) 966-6094,$$$,40.67788,-74.01209,Brooklyn
Lindens,175,New American,4.7,"['delivery', 'pickup']","2 Renwick St, New York, NY 10013",10013,(929) 595-7706,,40.72418,-74.00837,Manhattan
The Cabin NYC,713,"New American, Cocktail Bars, Breakfast & Brunch",4.1,"['delivery', 'pickup', 'restaurant_reservation']","205 E 4th St, New York, NY 10009",10009,(212) 777-0454,$$,40.723991,-73.983785,Manhattan
The View at The Battery,53,"New American, Party & Event Planning, Wedding Planning",3.7,['delivery'],"1 Battery Park, New York, NY 10004",10004,(212) 809-5508,$$,40.701607646229405,-74.01494283212776,Manhattan
Artesano Peruvian Cuisine,163,"Peruvian, Bars",4.5,[],"90 Chambers St, New York, NY 10007",10007,(212) 372-0297,,40.714477664263505,-74.0074549,Manhattan
Rubirosa,3479,"Italian, Pizza",4.3,['pickup'],"235 Mulberry St, New York, NY 10012",10012,(212) 965-0500,$$,40.722766,-73.996233,Manhattan
Joe's Shanghai,7490,"Shanghainese, Seafood, Noodles",3.8,"['delivery', 'pickup']","46 Bowery St, New York, NY 10013",10013,(212) 233-8888,$$,40.7156608,-73.9967012,Manhattan
La Parisienne,1011,"Cafes, Breakfast & Brunch, Wine Bars",4.6,"['delivery', 'pickup']","9 Maiden Ln, New York, NY 10038",10038,(646) 756-4911,$$,40.70961,-74.0093799,Manhattan
Au Cheval,1122,"Burgers, New American, Cocktail Bars",4.3,[],"33 Cortlandt Aly, New York, NY 10013",10013,(646) 350-2429,$$$,40.71812171604106,-74.00196237391103,Manhattan
White Horse Tavern - Financial District,459,"Pubs, Burgers, Venues & Event Spaces",4.0,['pickup'],"25 Bridge St, New York, NY 10004",10004,(212) 668-9046,$$,40.70372,-74.01237,Manhattan
Regular NYC,33,"Breakfast & Brunch, Coffee & Tea, Bagels",5.0,[],"19 Rector St, New York, NY 10006",10006,(917) 261-2090,,40.70801,-74.013984,Manhattan
Hudson & Co,865,"Gastropubs, New American, Cocktail Bars",3.8,"['delivery', 'pickup']","3 2nd St, Jersey City, NJ 07302",7302,(201) 685-7330,$$$,40.720988,-74.031573,
La Marchande,63,"French, Brasseries",4.3,[],"88 Wall St, New York, NY 10005",10005,(212) 837-2089,$$$,40.70535,-74.00745,Manhattan
Los Tacos No. 1,526,Tacos,4.6,['delivery'],"136 Church St, New York, NY 10007",10007,,$$,40.714321479882344,-74.00872051248906,Manhattan
Da Claudio,674,"Italian, Cocktail Bars, Seafood",4.3,"['delivery', 'pickup', 'restaurant_reservation']","21 Ann St, New York, NY 10038",10038,(212) 285-2668,$$$,40.71087,-74.00753,Manhattan
Gran Via,15,"Tapas Bars, Spanish, Beer, Wine & Spirits",4.3,['delivery'],"57 Stone St, New York, NY 10004",10004,,,40.7044409554021,-74.01017556461801,Manhattan
Red Hook Lobster Pound,1372,Seafood,4.0,"['delivery', 'pickup']","284 Van Brunt St, Brooklyn, NY 11231",11231,(718) 858-7650,$$,40.6797687107191,-74.0103686973453,Brooklyn
Torrisi,293,Italian,4.5,[],"275 Mulberry St, New York, NY 10012",10012,(212) 254-3000,$$$$,40.72428598821748,-73.9954023,Manhattan
Hole In The Wall,842,"Breakfast & Brunch, Coffee & Tea, Australian",4.2,"['pickup', 'delivery']","15 Cliff St, New York, NY 10038",10038,(212) 602-9991,$$,40.708426,-74.005657,Manhattan
Brickyard Craft Kitchen and Bar,91,"Sports Bars, American, Beer Bar",4.4,"['delivery', 'pickup']","23 Park Pl, New York, NY 10007",10007,(646) 449-0826,,40.71333659013943,-74.008664,Manhattan
Fish Cheeks,1731,"Seafood, Thai, Live/Raw Food",4.4,"['pickup', 'delivery']","55 Bond St, New York, NY 10012",10012,(212) 677-2223,$$,40.7258,-73.9927,Manhattan
SOBOKU,113,Japanese,4.6,"['delivery', 'pickup']","276 Smith St, Brooklyn, NY 11231",11231,(917) 909-0328,,40.682529,-73.99346,Brooklyn
DOMODOMO Jersey City,783,"Japanese, Sushi Bars",4.3,['delivery'],"200 Greene St, Jersey City, NJ 07302",7302,(201) 267-0222,,40.720237887545395,-74.03427148430569,
Lil Chef Mama,180,Thai,4.5,"['delivery', 'pickup']","27 Cliff St, New York, NY 10038",10038,(646) 964-5555,$$,40.708453,-74.005321,Manhattan
NAYA,195,"Middle Eastern, Mediterranean",4.2,"['delivery', 'pickup']","1 New York Plz, New York, NY 10004",10004,(212) 760-8888,$,40.7021564536913,-74.01253591140323,Manhattan
FERNS,310,"Cocktail Bars, New American, Breakfast & Brunch",4.5,['delivery'],"166 1st Ave, New York, NY 10009",10009,(646) 998-5034,$$,40.72881612591204,-73.9840489193202,Manhattan
The Archer,369,"Cocktail Bars, Tapas/Small Plates",4.3,['delivery'],"176 Newark Ave, Jersey City, NJ 07302",7302,(201) 309-1090,$$,40.721315204191,-74.045283556493,
Clover Hill,55,New American,4.5,[],"20 Columbia Pl, Brooklyn, NY 11201",11201,(347) 457-6850,,40.69316,-73.99871,Brooklyn
Susukino Ramen,66,Ramen,4.7,"['delivery', 'pickup']","34 Water St, New York, NY 10004",10004,,,40.70335803825801,-74.0108512266325,Manhattan
Jane Doe,69,"Cocktail Bars, Italian, Asian Fusion",4.2,[],"333 Newark Ave, Jersey City, NJ 07302",7302,(201) 256-3181,,40.724784,-74.051569,
Malibu Farm,432,"New American, Venues & Event Spaces, Beer Bar",3.8,"['pickup', 'delivery']","89 South St, New York, NY 10038",10038,(212) 265-3030,$$,40.705644,-74.00188,Manhattan
Swoony's,46,"New American, Bars, Seafood",4.4,"['delivery', 'pickup']","215 Columbia St, Brooklyn, NY 11231",11231,,,40.68471810565555,-74.0026429,Brooklyn
Thai Diner,1015,Thai,4.2,['delivery'],"186 Mott St, New York, NY 10012",10012,(646) 559-4140,$$,40.72071042964739,-73.9956057,Manhattan
Manhatta,801,New American,4.4,[],"28 Liberty St, Fl 60, New York, NY 10005",10005,(212) 230-5788,$$$$,40.70800627689857,-74.00888226517013,Manhattan
Cedar Local,176,"Cocktail Bars, New American, Venues & Event Spaces",4.0,"['delivery', 'pickup', 'restaurant_reservation']","25 Cedar St, New York, NY 10005",10005,(212) 344-3467,$$,40.707047,-74.008054,Manhattan
Golden Wuish The Duck House,196,"Asian Fusion, Dim Sum, Cocktail Bars",4.4,"['delivery', 'pickup']","6 Platt St, New York, NY 10038",10038,(212) 273-9296,$$$,40.707324,-74.006407,Manhattan
Mezcali,161,"Tacos, Tapas/Small Plates, Cocktail Bars",4.0,[],"83 Maiden Ln, New York, NY 10038",10038,(917) 409-5881,$$,40.70745,-74.00748,Manhattan
Mikado,156,Sushi Bars,4.8,"['delivery', 'pickup']","164 Pearl St, New York, NY 10005",10005,(212) 871-7499,,40.70589172111019,-74.0074034,Manhattan
La Marchande,63,"French, Brasseries",4.3,[],"88 Wall St, New York, NY 10005",10005,(212) 837-2089,$$$,40.70535,-74.00745,Manhattan
Harry's,861,"Steakhouses, Cafes, Bars",4.1,"['delivery', 'pickup']","1 Hanover Sq, New York, NY 10004",10004,(212) 785-9200,$$$,40.704512,-74.009834,Manhattan
Farida Central Asian Cuisine & Grill - Downtown,108,"Uzbek, Halal, Ukrainian",4.4,"['delivery', 'pickup']","32 Cedar St, New York, NY 10005",10005,(646) 705-2261,,40.70712,-74.00845,Manhattan
Gran Via,15,"Tapas Bars, Spanish, Beer, Wine & Spirits",4.3,['delivery'],"57 Stone St, New York, NY 10004",10004,,,40.7044409554021,-74.01017556461801,Manhattan
Manhatta,801,New American,4.4,[],"28 Liberty St, Fl 60, New York, NY 10005",10005,(212) 230-5788,$$$$,40.70800627689857,-74.00888226517013,Manhattan
London & Martin,45,"Gastropubs, Bars, Venues & Event Spaces",4.4,[],"6 Stone St, New York, NY 10004",10004,(646) 370-1330,,40.70396227151994,-74.01242195619244,Manhattan
Felice 15 Gold,494,"Wine Bars, Tuscan",4.1,"['delivery', 'pickup']","15 Gold St, New York, NY 10038",10038,(212) 785-5950,$$$,40.70789,-74.00712,Manhattan
Westville,295,Mediterranean,4.0,"['delivery', 'pickup']","110 Wall St, New York, NY 10005",10005,(212) 741-4780,$$,40.7047772,-74.00642874102088,Manhattan
Goku Kitchen,52,"Asian Fusion, Japanese",4.5,"['delivery', 'pickup']","26 Cedar St, New York, NY 10005",10005,(646) 449-8289,,40.70697,-74.0082,Manhattan
Trinity Place,447,"Bars, New American, Irish",3.9,[],"115 Broadway, New York, NY 10006",10006,(212) 964-0939,$$,40.708865,-74.01117,Manhattan
Crown Shy,660,"New American, Cocktail Bars, Venues & Event Spaces",4.2,[],"70 Pine St, New York, NY 10005",10005,(212) 517-1932,$$$$,40.7063449,-74.0076944,Manhattan
La Parisienne,1011,"Cafes, Breakfast & Brunch, Wine Bars",4.6,"['delivery', 'pickup']","9 Maiden Ln, New York, NY 10038",10038,(646) 756-4911,$$,40.70961,-74.0093799,Manhattan
The Malt House,663,"Gastropubs, Pubs, Breakfast & Brunch",3.9,"['delivery', 'pickup']","9 Maiden Ln, New York, NY 10038",10038,(646) 682-7577,$$,40.709659,-74.009262,Manhattan
Broadstone Bar & Kitchen,383,"New American, Cocktail Bars, Sports Bars",3.9,"['delivery', 'pickup']","88 Broad St, New York, NY 10004",10004,(646) 707-0426,$$,40.70411,-74.01186,Manhattan
New York Best Halal Food,12,"Middle Eastern, Food Stands, Halal",4.8,"['delivery', 'pickup']","95 Wall St, New York, NY 10005",10005,(347) 825-5053,,40.70493,-74.00749,Manhattan
Adrienne's Pizzabar,1891,"Pizza, Italian, Beer Bar",3.9,"['delivery', 'pickup']","54 Stone St, New York, NY 10004",10004,(212) 248-3838,$$,40.70424819999999,-74.0101127,Manhattan
White Horse Tavern - Financial District,459,"Pubs, Burgers, Venues & Event Spaces",4.0,['pickup'],"25 Bridge St, New York, NY 10004",10004,(212) 668-9046,$$,40.70372,-74.01237,Manhattan
Yao,38,Cantonese,4.1,[],"213 Pearl St, New York, NY 10038",10038,,,40.70715,-74.00642,Manhattan
The Bedford Stone Street,1,"Venues & Event Spaces, Gastropubs",5.0,[],"55 Stone St, New York, NY 10004",10004,(646) 346-6366,,40.704469,-74.010354,Manhattan
Hole In The Wall,842,"Breakfast & Brunch, Coffee & Tea, Australian",4.2,"['delivery', 'pickup']","15 Cliff St, New York, NY 10038",10038,(212) 602-9991,$$,40.708426,-74.005657,Manhattan
Susukino Ramen,66,Ramen,4.7,"['delivery', 'pickup']","34 Water St, New York, NY 10004",10004,,,40.70335803825801,-74.0108512266325,Manhattan
Wall Street Grill,73,"Desserts, Bars, American",3.9,"['delivery', 'pickup']","128 Pearl St, New York, NY 10005",10005,(212) 635-5757,,40.70489359972938,-74.00867283419596,Manhattan
Toro Loco,510,"Cocktail Bars, Mexican, Breakfast & Brunch",4.0,"['delivery', 'pickup']","15 Stone St, New York, NY 10004",10004,(917) 262-0444,$$,40.70421,-74.01208,Manhattan
Lil Chef Mama,180,Thai,4.5,"['delivery', 'pickup']","27 Cliff St, New York, NY 10038",10038,(646) 964-5555,$$,40.708453,-74.005321,Manhattan
Hey Thai,217,"Thai, Diners, Asian Fusion",4.2,"['delivery', 'pickup']","127 John St, New York, NY 10038",10038,(646) 476-8084,$$,40.70736912933025,-74.00521581497618,Manhattan
Sky 55 Bar & Grill,33,"Bars, New American",4.3,[],"55 Water St, Fl 3, New York, NY 10041",10041,(646) 590-6556,$$,40.703234,-74.008687,
Caravan Uyghur Cuisine,87,"Kebab, Noodles, Chicken Shop",4.4,"['delivery', 'pickup']","60 Beaver St, New York, NY 10004",10004,(929) 318-8615,,40.705124266005406,-74.00960762053728,Manhattan
Selene,46,"Greek, Wine Bars, Cocktail Bars",4.2,"['delivery', 'pickup']","11 Hanover Sq, New York, NY 10005",10005,(212) 480-2670,,40.705011963062674,-74.00885699999999,Manhattan
Old Xi'an,302,Chinese,4.1,"['delivery', 'pickup']","164 Pearl St, New York, NY 10005",10005,(212) 797-5509,$$,40.70591,-74.00747,Manhattan
Conwell Coffee Hall,69,"Cafes, Coffee & Tea",4.5,[],"6 Hanover St, New York, NY 10005",10005,(646) 412-5747,,40.7054353,-74.00915270267981,Manhattan
Daisy Duke’s Honky Tonk,1,"Country Dance Halls, Comfort Food, Cocktail Bars",5.0,[],"47 Stone St, New York, NY 10004",10004,(917) 400-8148,,40.7044003373822,-74.01034566390679,Manhattan
Best Sicily Bottega,37,"Olive Oil, Sicilian",4.9,"['delivery', 'pickup']","85 Beaver St, New York, NY 10005",10005,(646) 908-9720,,40.705419987248106,-74.00863869999999,Manhattan
the last drop cafe,1,Seafood,5.0,[],"111 N Front St, New York, NY 10001",10001,,,40.704267,-74.00699999999999,Manhattan
3 Times,119,"Dim Sum, Shanghainese, Noodles",4.1,"['delivery', 'pickup']","38 Water St, New York, NY 10004",10004,(646) 895-9297,$$,40.70334357997384,-74.01061648559107,Manhattan
Industry Kitchen,1020,"American, Breakfast & Brunch, Cocktail Bars",3.7,"['delivery', 'pickup']","70 South St, New York, NY 10005",10005,(212) 487-9600,$$,40.7049434740873,-74.0048825740814,Manhattan
Kuu,873,"Ramen, Noodles, Soup",4.0,"['delivery', 'pickup']","20 John St, New York, NY 10038",10038,(212) 571-7177,$$,40.709738,-74.008966,Manhattan
Regular NYC,33,"Breakfast & Brunch, Coffee & Tea, Bagels",5.0,[],"19 Rector St, New York, NY 10006",10006,(917) 261-2090,,40.70801,-74.013984,Manhattan
O'Hara's Restaurant and Pub,656,"Irish Pub, Sports Bars, American",4.1,['delivery'],"120 Cedar St, Ste 4, New York, NY 10006",10006,(212) 267-3032,$$,40.7093473589949,-74.0122557367896,Manhattan
Xi’an Famous Foods,220,Chinese,4.2,['delivery'],"8 Liberty Pl, New York, NY 10038",10038,(212) 786-2068,$$,40.70919,-74.00934,Manhattan
Luke's Lobster FiDi,1284,"Seafood, Soup, Sandwiches",4.3,"['delivery', 'pickup']","26 S William St, New York, NY 10004",10004,(212) 747-1700,$$,40.7046213003984,-74.0107793876969,Manhattan
Nara Sushi,155,"Sushi Bars, Japanese",4.4,"['delivery', 'pickup']","76 Pearl St, New York, NY 10004",10004,(646) 720-0202,$$,40.70377,-74.01041,Manhattan
Carne Mare,316,"Steakhouses, Italian, Seafood",4.4,['delivery'],"89 South St, Pier 17, New York, NY 10038",10038,(212) 280-4600,,40.70568649199326,-74.00218961453646,Manhattan
Antica Ristorante,627,Italian,4.3,"['delivery', 'pickup']","8 Stone St, New York, NY 10004",10004,(212) 480-3880,$$$,40.7039355145338,-74.0121731758117,Manhattan
Dim Sum Palace,62,"Dim Sum, Cantonese, Seafood",4.0,"['delivery', 'pickup', 'restaurant_reservation']","123 William St, New York, NY 10038",10038,(212) 901-9760,$$,40.70933446702987,-74.00682738550027,Manhattan
Koreatgo,26,Korean,4.7,"['delivery', 'pickup']","225 Pearl St, New York, NY 10038",10038,(929) 494-0276,,40.707347499262056,-74.00589612883579,Manhattan
Joe's Pizza,638,Pizza,4.2,"['delivery', 'pickup']","124 Fulton St, New York, NY 10038",10038,(212) 267-0860,$,40.71009,-74.00768,Manhattan
O'Hara's Restaurant and Pub,656,"Irish Pub, Sports Bars, American",4.1,['delivery'],"120 Cedar St, Ste 4, New York, NY 10006",10006,(212) 267-3032,$$,40.7093473589949,-74.0122557367896,Manhattan
Trinity Place,447,"Bars, New American, Irish",3.9,[],"115 Broadway, New York, NY 10006",10006,(212) 964-0939,$$,40.708865,-74.01117,Manhattan
Regular NYC,33,"Breakfast & Brunch, Coffee & Tea, Bagels",5.0,[],"19 Rector St, New York, NY 10006",10006,(917) 261-2090,,40.70801,-74.013984,Manhattan
The Malt House,663,"Gastropubs, Pubs, Breakfast & Brunch",3.9,"['delivery', 'pickup']","9 Maiden Ln, New York, NY 10038",10038,(646) 682-7577,$$,40.709659,-74.009262,Manhattan
Mezze on the River,221,"Seafood, Mediterranean",4.2,"['delivery', 'pickup']","375 S End Ave, New York, NY 10280",10280,(212) 432-1451,$$$,40.7112473,-74.0176642,Manhattan
La Parisienne,1011,"Cafes, Breakfast & Brunch, Wine Bars",4.6,"['pickup', 'delivery']","9 Maiden Ln, New York, NY 10038",10038,(646) 756-4911,$$,40.70961,-74.0093799,Manhattan
Metropolis by Marcus Samuelsson,59,"American, Cocktail Bars",4.2,[],"251 Fulton St Located In Perelman, Perelman Performing Arts Center, New York, NY 10007",10007,(212) 266-3018,$$$,40.71239,-74.01243,Manhattan
Yeh’s Bao,21,"Food Delivery Services, Salad, Noodles",4.6,"['delivery', 'pickup']","38 Rector St, New York, NY 10006",10006,(917) 388-2801,,40.708411454439194,-74.0146604,Manhattan
Schilling Restaurant & Bar,224,"Austrian, Bars, New American",4.2,"['delivery', 'pickup']","109 Washington St, New York, NY 10006",10006,(212) 406-1200,$$,40.70876746027962,-74.01401660338927,Manhattan
Siena Pizza & Cannoli,169,"Pizza, Desserts",4.3,"['delivery', 'pickup']","14 Rector St, New York, NY 10006",10006,(212) 406-0918,$$,40.708152,-74.013864,Manhattan
Skinos,151,"Greek, Lounges, Mediterranean",3.7,['delivery'],"123 Washington St, New York, NY 10006",10006,(646) 720-0060,,40.7092191,-74.0137534,Manhattan
Bao Bao Cafe,271,"Noodles, Chinese",4.2,"['delivery', 'pickup']","106 Greenwich St, New York, NY 10006",10006,(917) 261-7122,$$,40.7085,-74.0134999,Manhattan
Eataly NYC Downtown,1381,"Grocery, Italian, Cafes",3.7,"['delivery', 'pickup']","101 Liberty St, Fl 3, New York, NY 10006",10006,(212) 897-2895,$$,40.710206,-74.011823,Manhattan
Treadwell Park,258,"Beer Bar, American, Tapas/Small Plates",4.0,"['delivery', 'pickup']","301 S End Ave, New York, NY 10280",10280,(212) 945-0528,$$,40.71031141285253,-74.01658239999999,Manhattan
Clinton Hall - FiDi,796,"Bars, Beer Gardens, American",3.7,"['delivery', 'pickup']","90 Washington St, New York, NY 10006",10006,(212) 363-6000,$$,40.708031,-74.01498,Manhattan
Manhatta,801,New American,4.4,[],"28 Liberty St, Fl 60, New York, NY 10005",10005,(212) 230-5788,$$$$,40.70800627689857,-74.00888226517013,Manhattan
Zaza Diner,141,"Seafood, Tacos, American",4.2,"['delivery', 'pickup']","104 Greenwich St, New York, NY 10006",10006,,$$,40.70834304035783,-74.01350267991972,Manhattan
Da Claudio,674,"Italian, Cocktail Bars, Seafood",4.3,"['delivery', 'restaurant_reservation', 'pickup']","21 Ann St, New York, NY 10038",10038,(212) 285-2668,$$$,40.71087,-74.00753,Manhattan
Kuu,873,"Ramen, Noodles, Soup",4.0,"['delivery', 'pickup']","20 John St, New York, NY 10038",10038,(212) 571-7177,$$,40.709738,-74.008966,Manhattan
Cedar Local,176,"Cocktail Bars, New American, Venues & Event Spaces",4.0,"['restaurant_reservation', 'pickup', 'delivery']","25 Cedar St, New York, NY 10005",10005,(212) 344-3467,$$,40.707047,-74.008054,Manhattan
Mughlai Indian Cuisine,80,Indian,4.4,"['delivery', 'pickup']","120 Cedar St, New York, NY 10006",10006,(646) 398-8985,,40.70953534633694,-74.01278923745791,Manhattan
Xi’an Famous Foods,220,Chinese,4.2,['delivery'],"8 Liberty Pl, New York, NY 10038",10038,(212) 786-2068,$$,40.70919,-74.00934,Manhattan
ER Hotpot,22,Hot Pot,4.2,[],"21 S End Ave, New York, NY 10280",10280,(646) 952-6666,,40.708139828257615,-74.0177891,Manhattan
Gansevoort Liberty Market,326,"Food Court, Public Markets",4.0,"['delivery', 'pickup']","101 Liberty St, New York, NY 10007",10007,(646) 449-8400,$$,40.710395,-74.012001,Manhattan
Pho Maiden Lane,18,Vietnamese,4.4,"['delivery', 'pickup']","3 Maiden Ln, New York, NY 10038",10038,(646) 449-0247,,40.70973701386723,-74.0095994,Manhattan
NAYA,46,"Mediterranean, Middle Eastern",4.4,['pickup'],"225 Liberty St, Fl 2, New York, NY 10281",10281,(929) 946-8404,,40.71082,-74.01555,
L'Appart,152,French,4.8,['delivery'],"225 Liberty St, New York, NY 10281",10281,(212) 981-8577,$$$$,40.712708,-74.015919,
Mikado,156,Sushi Bars,4.8,"['delivery', 'pickup']","164 Pearl St, New York, NY 10005",10005,(212) 871-7499,,40.70589172111019,-74.0074034,Manhattan
Joe's Pizza,638,Pizza,4.2,"['delivery', 'pickup']","124 Fulton St, New York, NY 10038",10038,(212) 267-0860,$,40.71009,-74.00768,Manhattan
Mezcali,161,"Tacos, Tapas/Small Plates, Cocktail Bars",4.0,[],"83 Maiden Ln, New York, NY 10038",10038,(917) 409-5881,$$,40.70745,-74.00748,Manhattan
Brickyard Craft Kitchen and Bar,91,"Sports Bars, American, Beer Bar",4.4,"['delivery', 'pickup']","23 Park Pl, New York, NY 10007",10007,(646) 449-0826,,40.71333659013943,-74.008664,Manhattan
George's,598,"American, Breakfast & Brunch",3.4,"['delivery', 'pickup']","89 Greenwich St, New York, NY 10006",10006,(212) 269-8026,$$,40.7077437,-74.0134874,Manhattan
7th Street Burger,103,Burgers,4.3,"['delivery', 'pickup']","80 Nassau St, New York, NY 10038",10038,,,40.709804,-74.007915,Manhattan
Bill's Bar & Burger Downtown,830,"Bars, Burgers",3.5,"['delivery', 'pickup']","85 West St, New York, NY 10006",10006,(212) 894-3800,$$,40.70936301095898,-74.0141804516316,Manhattan
Omar’s Mediterranean Cuisine,60,"Mediterranean, Salad, Barbeque",4.9,"['delivery', 'pickup']","15 Ann St, New York, NY 10038",10038,(646) 666-0101,,40.71096,-74.00787,Manhattan
Blue Haven South,49,"Sports Bars, Breakfast & Brunch",4.4,[],"121 Fulton St, New York, NY 10038",10038,(332) 257-7630,$$,40.710125653805505,-74.00704429999999,Manhattan
Aly's Breakfast,11,Breakfast & Brunch,4.4,[],"136 Broadway, Manhattan, NY 10004",10004,,,40.70882608914357,-74.0108316707854,Manhattan
Felice 15 Gold,494,"Wine Bars, Tuscan",4.1,"['delivery', 'pickup']","15 Gold St, New York, NY 10038",10038,(212) 785-5950,$$$,40.70789,-74.00712,Manhattan
Sant Ambroeus Brookfield,119,"Coffee & Tea, Italian",3.9,['delivery'],"230 Vesey St, New York, NY 10080",10080,(212) 732-0907,,40.7140744,-74.0153339,
Jiangnan Chinese Cuisine,83,Chinese,3.4,"['delivery', 'pickup']","103 Washington St, Fl 2, New York, NY 10006",10006,(212) 962-2096,,40.70839,-74.01405,Manhattan
Farida Central Asian Cuisine & Grill - Downtown,108,"Uzbek, Halal, Ukrainian",4.4,"['delivery', 'pickup']","32 Cedar St, New York, NY 10005",10005,(646) 705-2261,,40.70712,-74.00845,Manhattan
Los Tacos No. 1,526,Tacos,4.6,['delivery'],"136 Church St, New York, NY 10007",10007,,$$,40.714321479882344,-74.00872051248906,Manhattan
Liberty Bistro,161,French,3.7,['pickup'],"225 Liberty St, New York, NY 10281",10281,(212) 981-8588,,40.71283178793505,-74.01591883293482,
Norm's Pizza,25,Pizza,4.8,"['delivery', 'pickup']","8 Cortlandt St, New York, NY 10007",10007,(646) 649-2692,,40.71008448698627,-74.0103149,Manhattan
Imm Thai NYC,60,"Thai, Seafood",4.4,"['delivery', 'pickup']","80 Nassau St, New York, NY 10038",10038,(646) 476-4682,,40.709804,-74.007915,Manhattan
Dim Sum Palace,62,"Dim Sum, Cantonese, Seafood",4.0,"['restaurant_reservation', 'pickup', 'delivery']","123 William St, New York, NY 10038",10038,(212) 901-9760,$$,40.70933446702987,-74.00682738550027,Manhattan
Goku Kitchen,52,"Asian Fusion, Japanese",4.5,"['delivery', 'pickup']","26 Cedar St, New York, NY 10005",10005,(646) 449-8289,,40.70697,-74.0082,Manhattan
Monk Mcginn's,152,"New American, Breakfast & Brunch, Cocktail Bars",4.4,"['delivery', 'restaurant_reservation', 'pickup']","57 Murray St, New York, NY 10007",10007,(917) 265-8961,$$,40.7144194,-74.00967281073923,Manhattan
Otani,7,"Sushi Bars, Ramen",4.9,"['restaurant_reservation', 'pickup', 'delivery']","59 Nassau St, New York, NY 10038",10038,(212) 732-9250,,40.70933306297702,-74.0088552,Manhattan
Ito,37,"Sushi Bars, Japanese",4.8,[],"75 Barclay St, New York, NY 10007",10007,,,40.71330901722842,-74.01016682421009,Manhattan
WarrenPeace,46,"Cocktail Bars, Mediterranean",4.7,[],"77 Warren St, New York, NY 10007",10007,(845) 592-5334,$$,40.715022,-74.010284,Manhattan
Artesano Peruvian Cuisine,163,"Peruvian, Bars",4.5,[],"90 Chambers St, New York, NY 10007",10007,(212) 372-0297,,40.714477664263505,-74.0074549,Manhattan
Brickyard Craft Kitchen and Bar,91,"Sports Bars, American, Beer Bar",4.4,"['pickup', 'delivery']","23 Park Pl, New York, NY 10007",10007,(646) 449-0826,,40.71333659013943,-74.008664,Manhattan
1803 Nyc,849,"Cajun/Creole, Seafood, Bars",4.2,"['pickup', 'delivery']","82 Reade St, New York, NY 10007",10007,(212) 267-3000,$$,40.715498,-74.007178,Manhattan
Taiwanese Yummy,8,"Taiwanese, Street Vendors, Food Stands",4.0,[],"New York, NY 10007",10007,,,40.713,-74.0072,Manhattan
Da Claudio,674,"Italian, Cocktail Bars, Seafood",4.3,"['pickup', 'delivery', 'restaurant_reservation']","21 Ann St, New York, NY 10038",10038,(212) 285-2668,$$$,40.71087,-74.00753,Manhattan
Gran Morsi,560,"Italian, Venues & Event Spaces, Cocktail Bars",4.4,"['pickup', 'delivery']","22 Warren St, New York, NY 10007",10007,(212) 577-2725,$$$,40.714312,-74.007791,Manhattan
Los Tacos No. 1,526,Tacos,4.6,['delivery'],"136 Church St, New York, NY 10007",10007,,$$,40.714321479882344,-74.00872051248906,Manhattan
Monk Mcginn's,152,"New American, Breakfast & Brunch, Cocktail Bars",4.4,"['pickup', 'delivery', 'restaurant_reservation']","57 Murray St, New York, NY 10007",10007,(917) 265-8961,$$,40.7144194,-74.00967281073923,Manhattan
Brooklyn Chop House,1057,"Dim Sum, Steakhouses, Asian Fusion",3.9,"['pickup', 'delivery']","150 Nassau St, New York, NY 10038",10038,(212) 619-1200,$$$$,40.71151,-74.00597,Manhattan
Marc Forgione,1052,New American,4.3,"['pickup', 'delivery']","30 Hudson St, New York, NY 10013",10013,(212) 941-9401,$$$,40.71667,-74.00899,Manhattan
Omar’s Mediterranean Cuisine,60,"Mediterranean, Salad, Barbeque",4.9,"['pickup', 'delivery']","15 Ann St, New York, NY 10038",10038,(646) 666-0101,,40.71096,-74.00787,Manhattan
La Parisienne,1011,"Cafes, Breakfast & Brunch, Wine Bars",4.6,"['pickup', 'delivery']","9 Maiden Ln, New York, NY 10038",10038,(646) 756-4911,$$,40.70961,-74.0093799,Manhattan
Nish Nush,842,"Vegetarian, Moroccan, Greek",4.4,"['pickup', 'delivery']","88 Reade St, New York, NY 10013",10013,(212) 964-1318,$$,40.715688,-74.007695,Manhattan
GunBae Tribeca,557,"Korean, Karaoke, Barbeque",4.3,"['pickup', 'delivery', 'restaurant_reservation']","67 Murray St, New York, NY 10007",10007,(212) 321-2500,$$$,40.71463608348523,-74.0103000899869,Manhattan
The Malt House,663,"Gastropubs, Pubs, Breakfast & Brunch",3.9,"['pickup', 'delivery']","9 Maiden Ln, New York, NY 10038",10038,(646) 682-7577,$$,40.709659,-74.009262,Manhattan
Joe's Pizza,638,Pizza,4.2,"['pickup', 'delivery']","124 Fulton St, New York, NY 10038",10038,(212) 267-0860,$,40.71009,-74.00768,Manhattan
Tiny's & The Bar Upstairs,696,"Bars, New American",3.8,"['pickup', 'delivery']","135 W Broadway, New York, NY 10013",10013,(212) 374-1135,$$,40.716698,-74.00816,Manhattan
Blue Haven South,49,"Sports Bars, Breakfast & Brunch",4.4,[],"121 Fulton St, New York, NY 10038",10038,(332) 257-7630,$$,40.710125653805505,-74.00704429999999,Manhattan
Ito,37,"Sushi Bars, Japanese",4.8,[],"75 Barclay St, New York, NY 10007",10007,,,40.71330901722842,-74.01016682421009,Manhattan
Fonda Tribeca,59,Mexican,4.5,"['pickup', 'delivery']","139 Duane St, New York, NY 10013",10013,(917) 261-6950,$$$,40.71664368792575,-74.00766223224433,Manhattan
Le Gratin,100,French,3.9,[],"5 Beekman St, New York, NY 10038",10038,(212) 597-9020,,40.711440173909835,-74.0068285,Manhattan
Warren Street Bar & Restaurant,12,"Breakfast & Brunch, American, Brasseries",3.8,[],"86 Warren St, Warren Street Hotel, New York, NY 10007",10007,(212) 255-8686,,40.71557,-74.01047,Manhattan
Chambers,35,"New American, Beer Bar, Cocktail Bars",4.3,[],"94 Chambers St, New York, NY 10007",10007,(212) 580-3572,,40.7145903,-74.00755015276324,Manhattan
The Odeon,834,"New American, French, Italian",3.9,"['pickup', 'delivery']","145 W Broadway, New York, NY 10013",10013,(212) 233-0507,$$$,40.71692,-74.00792,Manhattan
Metropolis by Marcus Samuelsson,59,"American, Cocktail Bars",4.2,[],"251 Fulton St Located In Perelman, Perelman Performing Arts Center, New York, NY 10007",10007,(212) 266-3018,$$$,40.71239,-74.01243,Manhattan
Ol' Days,47,"Breakfast & Brunch, Cafeteria, Salad",3.9,[],"73 Warren St, Tribeca, NY 10007",10007,,,40.7150388,-74.0101646,Manhattan
Two Hands,401,"Breakfast & Brunch, Australian, Cocktail Bars",3.8,"['pickup', 'delivery']","251 Church St, New York, NY 10013",10013,(646) 718-5619,$$,40.71782,-74.00547,Manhattan
Takahachi Bakery,1057,"Bakeries, Japanese, Coffee & Tea",4.1,"['pickup', 'delivery']","25 Murray St, New York, NY 10007",10007,(212) 791-5550,$$,40.71373,-74.00843,Manhattan
Hello Vietpho,43,Vietnamese,4.1,"['pickup', 'delivery']","63A Reade St, New York, NY 10007",10007,(917) 388-3038,$$,40.71489,-74.0066,Manhattan
Icca,36,Japanese,4.6,[],"20 Warren St, New York, NY 10007",10007,(646) 649-3415,,40.71426825071808,-74.0077059598649,Manhattan
7th Street Burger,103,Burgers,4.3,"['pickup', 'delivery']","80 Nassau St, New York, NY 10038",10038,,,40.709804,-74.007915,Manhattan
Kuu,873,"Ramen, Noodles, Soup",4.0,"['pickup', 'delivery']","20 John St, New York, NY 10038",10038,(212) 571-7177,$$,40.709738,-74.008966,Manhattan
Upon The Palace,3,"Chinese, Sushi Bars, Seafood",5.0,[],"317 Greenwich St, New York, NY 10013",10013,(646) 454-1755,,40.71703118125312,-74.01044499999999,Manhattan
Huso,86,"Wine Bars, Seafood",4.8,"['pickup', 'delivery']","323A Greenwich St, New York, NY 10013",10013,(212) 288-0850,$$$,40.717340414193686,-74.010442,Manhattan
Smyth Tavern,41,American,3.4,"['pickup', 'restaurant_reservation', 'delivery']","85 W Broadway, New York, NY 10007",10007,(917) 997-2700,,40.71521,-74.00913,Manhattan
Tara Kitchen - Tribeca New York,61,"Moroccan, Mediterranean, Seafood",4.2,"['pickup', 'delivery']","253 Church St, New York, NY 10013",10013,(212) 226-4400,,40.71791,-74.00539,Manhattan
Tsubame,13,Japanese,4.5,[],"11 Park Pl, New York, NY 10007",10007,(929) 614-5998,,40.713,-74.00834,Manhattan
The Bar Room,97,"Cocktail Bars, New American, Breakfast & Brunch",3.5,['delivery'],"123 Nassau St, New York, NY 10038",10038,(212) 658-1848,$$$,40.71122557019042,-74.0069041,Manhattan
Au Cheval,1122,"Burgers, New American, Cocktail Bars",4.3,[],"33 Cortlandt Aly, New York, NY 10013",10013,(646) 350-2429,$$$,40.71812171604106,-74.00196237391103,Manhattan
Brooklyn Bread Cafe,18,"Breakfast & Brunch, Acai Bowls, Sandwiches",4.7,"['pickup', 'delivery']","111 Murray St, New York, NY 10007",10007,(929) 586-2600,,40.715351,-74.0128441,Manhattan
Imm Thai NYC,60,"Thai, Seafood",4.4,"['pickup', 'delivery']","80 Nassau St, New York, NY 10038",10038,(646) 476-4682,,40.709804,-74.007915,Manhattan
Dim Sum Palace,62,"Dim Sum, Cantonese, Seafood",4.0,"['pickup', 'restaurant_reservation', 'delivery']","123 William St, New York, NY 10038",10038,(212) 901-9760,$$,40.70933446702987,-74.00682738550027,Manhattan
Trinity Place,447,"Bars, New American, Irish",3.9,[],"115 Broadway, New York, NY 10006",10006,(212) 964-0939,$$,40.708865,-74.01117,Manhattan
Benares,697,Indian,4.0,"['pickup', 'delivery']","45 Murray St, New York, NY 10007",10007,(212) 766-4900,$$,40.71415,-74.009209,Manhattan
Otani,7,"Sushi Bars, Ramen",4.9,"['pickup', 'restaurant_reservation', 'delivery']","59 Nassau St, New York, NY 10038",10038,(212) 732-9250,,40.70933306297702,-74.0088552,Manhattan
Temple Court,378,"New American, Desserts, Venues & Event Spaces",3.8,['delivery'],"5 Beekman St, New York, NY 10038",10038,(917) 728-4685,$$$$,40.711206,-74.00691,Manhattan
KOBA Korean BBQ,30,"Barbeque, Fast Food, Korean",4.4,"['pickup', 'delivery']","136 William St, New York, NY 10038",10038,(646) 649-2511,$$,40.709284,-74.006446,Manhattan
Argo Tribeca,39,"Mediterranean, Greek",4.5,"['pickup', 'delivery']","181 Duane St, New York, NY 10013",10013,(646) 649-4149,,40.71755,-74.01013,Manhattan
Pho Maiden Lane,18,Vietnamese,4.4,"['pickup', 'delivery']","3 Maiden Ln, New York, NY 10038",10038,(646) 449-0247,,40.70973701386723,-74.0095994,Manhattan
The Cabin NYC,713,"New American, Cocktail Bars, Breakfast & Brunch",4.1,"['pickup', 'restaurant_reservation', 'delivery']","205 E 4th St, New York, NY 10009",10009,(212) 777-0454,$$,40.723991,-73.983785,Manhattan
FERNS,310,"Cocktail Bars, New American, Breakfast & Brunch",4.5,['delivery'],"166 1st Ave, New York, NY 10009",10009,(646) 998-5034,$$,40.72881612591204,-73.9840489193202,Manhattan
Thursday Kitchen,1835,"Korean, New American, Tapas/Small Plates",4.4,"['pickup', 'delivery']","424 E 9th St, New York, NY 10009",10009,,$$,40.72761,-73.98373,Manhattan
LoveMama,6925,"Thai, Malaysian, Vietnamese",4.4,"['pickup', 'delivery', 'restaurant_reservation']","174 2nd Ave, New York, NY 10003",10003,(212) 254-5370,$$,40.730408722512074,-73.98612673033213,Manhattan
ARIARI,339,"Korean, Tapas/Small Plates, Gastropubs",4.5,[],"119 1st Ave, New York, NY 10003",10003,(646) 422-7466,,40.727283504010266,-73.9858313,Manhattan
Raku,1729,"Japanese, Noodles",4.4,"['pickup', 'delivery']","342 E 6th St, New York, NY 10003",10003,(212) 228-1324,$$,40.7264988089246,-73.9866526052356,Manhattan
Pylos,1276,Greek,4.3,"['pickup', 'delivery']","128 E 7th St, New York, NY 10009",10009,(212) 473-0220,$$$,40.72608,-73.98415,Manhattan
The Mayfly,81,American,4.4,"['pickup', 'delivery']","269 E Houston St, New York, NY 10002",10002,(646) 449-8435,,40.72152,-73.98462,Manhattan
Motel No tell,44,"Cocktail Bars, New American, Breakfast & Brunch",4.6,"['pickup', 'delivery']","210 Avenue A, New York, NY 10009",10009,(646) 368-9775,,40.729779,-73.980599,Manhattan
Ye's Apothecary 夜莺,797,"Szechuan, Speakeasies",4.6,[],"119 Orchard St, New York, NY 10002",10002,(929) 655-2515,$$,40.71945,-73.9898,Manhattan
11 Tigers,216,"Asian Fusion, Cocktail Bars, Japanese",3.9,"['pickup', 'delivery']","225 Avenue B, Fl 2, New York, NY 10009",10009,(929) 235-6826,,40.72908,-73.97815,Manhattan
Salma,214,"Lebanese, Breakfast & Brunch, Sandwiches",4.5,"['pickup', 'delivery']","351 E 12th St, New York, NY 10003",10003,(917) 261-4907,$$,40.730369942268375,-73.9837222575225,Manhattan
Pardon My French,1164,"French, Cocktail Bars",4.2,"['pickup', 'delivery']","103 Avenue B, New York, NY 10009",10009,(212) 358-9683,$$,40.7247571,-73.9811914,Manhattan
Hanoi House,796,Vietnamese,4.3,[],"119 Saint Marks Pl, New York, NY 10009",10009,(212) 995-5010,$$,40.727066,-73.983505,Manhattan
Mokyo,395,"Korean, Tapas/Small Plates, Cocktail Bars",4.6,"['pickup', 'delivery']","109 St Marks Pl, New York, NY 10009",10009,,,40.72714401116084,-73.98395721296154,Manhattan
Red Onion,86,"Vegetarian, Indian, Halal",4.8,"['pickup', 'delivery', 'restaurant_reservation']","277 East 10th St, New York, NY 10009",10009,(646) 609-1355,$$,40.728276,-73.982727,Manhattan
Cafe Mogador,2230,"Moroccan, Middle Eastern, Breakfast & Brunch",4.1,"['pickup', 'delivery']","101 St Marks Pl, New York, NY 10009",10009,(212) 677-2226,$$,40.727258767439,-73.9845085144043,Manhattan
Kafana,473,Modern European,4.0,"['pickup', 'delivery']","116 Ave C, New York, NY 10009",10009,(212) 353-8000,$$,40.72432,-73.97851,Manhattan
No Fork,6,"Sandwiches, American, Pizza",5.0,"['pickup', 'delivery']","131 Avenue A, New York, NY 10009",10009,,,40.72692462853252,-73.9831406,Manhattan
Fishmarket II,45,Malaysian,4.6,"['pickup', 'delivery']","171 Avenue A, New York, NY 10009",10009,(646) 922-7004,,40.72835,-73.98204,Manhattan
Soothr,1504,"Thai, Noodles, Cocktail Bars",4.5,"['pickup', 'delivery']","204 E 13th St, New York, NY 10003",10003,(212) 844-9789,$$,40.732259,-73.987363,Manhattan
Fiaschetteria Pistoia,362,"Tuscan, Pasta Shops",4.2,"['pickup', 'delivery']","647 E 11th St, New York, NY 10009",10009,(212) 777-3355,$$,40.72666,-73.9773,Manhattan
Burgers on B,35,Burgers,4.5,"['pickup', 'delivery']","168 Avenue B, New York, NY 10009",10009,,,40.727281615402646,-73.97986513046804,Manhattan
Nowon East Village,418,"Korean, New American, Gastropubs",4.3,"['pickup', 'delivery']","507 E 6th St, New York, NY 10009",10009,(646) 692-3867,$$$,40.7253574,-73.9833014,Manhattan
Upstate Craft Beer & Oyster Bar,2096,Seafood,4.4,['delivery'],"95 1st Ave, New York, NY 10003",10003,(646) 791-5400,$$,40.726373,-73.986557,Manhattan
Westville,1173,Mediterranean,4.0,"['pickup', 'delivery']","173 Avenue A, NY, NY 10009",10009,(212) 677-2033,$$,40.728473,-73.982104,Manhattan
Soda Club,101,"Wine Bars, Italian, Vegan",4.6,"['pickup', 'delivery']","155 Avenue B, New York, NY 10009",10009,(833) 328-4588,,40.726654,-73.979875,Manhattan
Yuca Bar,2068,"Latin American, Tapas Bars, Cocktail Bars",3.9,"['pickup', 'delivery']","111 Avenue A, New York, NY 10009",10009,(212) 982-9533,$$,40.7262,-73.9836,Manhattan
The Wayland,553,"Cocktail Bars, Music Venues, American",4.4,['delivery'],"700 E 9th St, New York, NY 10009",10009,(212) 777-7022,$$,40.7251,-73.9778,Manhattan
San Loco,34,"Mexican, Tex-Mex",3.9,"['pickup', 'delivery']","111 Ave C, New York, NY 10009",10009,(212) 260-7948,,40.7243318,-73.978931,Manhattan
Virginia's,59,"American, Cocktail Bars, Beer Bar",4.5,[],"200 E 3rd St, New York, NY 10009",10009,(646) 952-0032,,40.722704,-73.98332,Manhattan
Toriya,56,"Izakaya, Tapas/Small Plates",4.7,"['pickup', 'restaurant_reservation', 'delivery']","178 Stanton St, New York, NY 10002",10002,(646) 559-0559,,40.72017,-73.98399,Manhattan
The York,21,Gastropubs,4.7,[],"186 Avenue B, New York, NY 10009",10009,,,40.727878,-73.979413,Manhattan
Two Perrys,16,"Cocktail Bars, Pubs, Cafes",5.0,"['pickup', 'delivery']","127 Loisaida Ave, New York, NY 10009",10009,,,40.72490863866719,-73.97857878635014,Manhattan
Hen House Nyc,33,"Lebanese, Food Stands, Sandwiches",4.4,"['pickup', 'delivery']","120 1st Ave, New York, NY 10009",10009,,,40.727042,-73.985458,Manhattan
House of Pasta NYC,6,"Italian, Pasta Shops",5.0,"['pickup', 'delivery']","511 E 12th St, New York, NY 10009",10009,(201) 885-0134,,40.728948,-73.980604,Manhattan
Bobby’s Night Out,16,"New Mexican Cuisine, Breakfast & Brunch, Cocktail Bars",4.9,['delivery'],"145 Ave C, New York, NY 10009",10009,(917) 261-2159,,40.72547,-73.97802,Manhattan
Superiority Burger,142,"Vegetarian, Diners",3.5,"['pickup', 'delivery']","119 Avenue A, New York, NY 10009",10009,(212) 256-1192,,40.726458,-73.983507,Manhattan
The Cabinet Mezcal Bar,39,"Cocktail Bars, Mexican, Beer Bar",4.6,['delivery'],"649 E 9th St, New York, NY 10009",10009,(347) 866-7739,$$,40.7254864,-73.97807578312654,Manhattan
Ayat,76,"Middle Eastern, Desserts, Salad",4.3,"['pickup', 'delivery']","107 Loisaida Ave, New York, NY 10009",10009,,$$,40.724243,-73.978924,Manhattan
Royale,546,"Burgers, Bars",4.1,"['pickup', 'delivery']","157 Ave C, New York, NY 10009",10009,(212) 254-6600,$$,40.7258174842573,-73.9778455564146,Manhattan
Jose Luis Mediterranean Cuisine,244,"Italian, Spanish, Mediterranean",4.8,"['pickup', 'restaurant_reservation', 'delivery']","186 Ave B, New York, NY 10009",10009,(646) 707-0746,,40.727859,-73.97934,Manhattan
A10 Kitchen,109,"Cocktail Bars, American, Breakfast & Brunch",4.1,"['pickup', 'delivery']","162 Ave A, New York, NY 10009",10009,(917) 261-6888,$$,40.72807,-73.981875,Manhattan
Au Za'atar,1804,"Wine Bars, Lebanese, Mediterranean",4.2,"['pickup', 'delivery']","188 Avenue A, New York, NY 10009",10009,(212) 254-5660,$$,40.728901,-73.981185,Manhattan
Bad Hombre,16,Mexican,4.8,[],"29 Second Ave, New York, NY 10003",10003,(212) 677-1030,,40.724695,-73.990888,Manhattan
Madame Vo,1171,Vietnamese,4.0,"['pickup', 'delivery']","212 E 10th St, New York, NY 10003",10003,(917) 261-2115,$$,40.72925,-73.98612,Manhattan
Aura Bar & Kitchen,41,"Italian, Cocktail Bars, Tapas Bars",4.8,"['pickup', 'delivery']","111 1st Ave, New York, NY 10003",10003,(646) 573-5578,,40.72696060505674,-73.9860999,Manhattan
Kalye- Broome,235,Filipino,4.6,"['pickup', 'restaurant_reservation', 'delivery']","251 Broome St, New York, NY 10002",10002,(646) 422-7267,$$,40.7179,-73.98999,Manhattan
Miss Lily's 7A Cafe,1016,"Caribbean, Cocktail Bars",3.9,"['pickup', 'delivery']","109 Avenue A, New York, NY 10009",10009,(212) 812-1482,$$,40.726019,-73.9837551,Manhattan
Kimura,472,"Japanese, Hot Pot, Sushi Bars",4.5,"['pickup', 'delivery']","31 St Marks Pl, New York, NY 10003",10003,(917) 905-1864,$$$,40.72904325062745,-73.9882174,Manhattan
Ampersand,274,"Cocktail Bars, New American",4.3,['delivery'],"294 3rd Ave, New York, NY 10010",10010,(212) 477-8100,$$,40.7386178790617,-73.9834206895483,Manhattan
Anytime Kitchen ,3089,"Korean, Tapas/Small Plates, Barbeque",4.6,"['delivery', 'pickup']","23 W 32nd St, Fl 3, New York, NY 10001",10001,(646) 669-7733,$$,40.74776270790539,-73.9867793576711,Manhattan
Seven Sins,8,"New American, Sports Bars",4.8,"['restaurant_reservation', 'delivery', 'pickup']","293 3rd Ave, New York, NY 10010",10010,(646) 649-2389,,40.73838,-73.98306,Manhattan
Tara Rose,927,"Cocktail Bars, New American, Breakfast & Brunch",4.6,"['restaurant_reservation', 'delivery', 'pickup']","384 3rd Ave, New York, NY 10016",10016,(929) 602-5983,$$,40.741803261063986,-73.98122457328056,Manhattan
Sundays Well,77,"Gastropubs, Irish Pub",4.5,"['pickup', 'delivery']","360 3rd Ave, New York, NY 10016",10016,(646) 707-3190,,40.741031,-73.981975,Manhattan
Thai Villa,5127,Thai,4.4,"['pickup', 'delivery']","5 E 19th St, G Floor, New York, NY 10003",10003,(212) 802-9999,$$,40.73902,-73.99065,Manhattan
Street Taco,590,"Cocktail Bars, Tacos, Beer Bar",4.0,"['pickup', 'delivery']","358 3rd Ave, New York, NY 10016",10016,(646) 791-5413,$$,40.74089,-73.98187,Manhattan
Her Name Is Han,2100,"Korean, Breakfast & Brunch",4.3,"['pickup', 'delivery']","17 E 31st St, New York, NY 10016",10016,(212) 779-9990,$$,40.7462615966797,-73.984733581543,Manhattan
Upland,1297,"New American, Burgers",4.0,"['pickup', 'delivery']","345 Park Ave S, New York, NY 10010",10010,(212) 686-1006,$$$,40.7418912,-73.9846396,Manhattan
Carlotto,83,"Italian, Wine Bars, Cocktail Bars",4.5,[],"100 E 19th St, New York, NY 10003",10003,(212) 209-1054,,40.7375,-73.98782,Manhattan
Osamil,827,"Korean, Gastropubs, Tapas/Small Plates",4.3,['delivery'],"5 West 31st St, New York, NY 10001",10001,(212) 300-4713,$$$,40.74697,-73.9864,Manhattan
5ive Spice,137,"Vietnamese, Salad, Tacos",4.4,"['pickup', 'delivery']","363 3rd Ave, New York, NY 10016",10016,(212) 918-8128,$$,40.740803,-73.981267,Manhattan
Gramercy Tavern,3622,New American,4.4,['delivery'],"42 E 20th St, New York, NY 10003",10003,(212) 477-0777,$$$$,40.73844,-73.98825,Manhattan
Malii Gramercy,199,Thai,4.5,"['pickup', 'delivery']","391 2nd Ave, New York, NY 10010",10010,(646) 952-0078,$$,40.73767,-73.98128,Manhattan
HandCraft Kitchen & Cocktails,516,"Cocktail Bars, Gastropubs, Comfort Food",4.2,"['delivery', 'restaurant_reservation', 'pickup']","367 3rd Ave, New York, NY 10016",10016,(212) 689-3000,$$,40.74103,-73.98132,Manhattan
Nubiani,341,"Korean, Barbeque",4.5,"['pickup', 'delivery']","315 5th Ave, Fl 3, New York, NY 10016",10016,(917) 623-0807,,40.74700575561414,-73.9854169149663,Manhattan
Little Maven,60,"New American, Pasta Shops, Cocktail Bars",4.7,[],"30 W 18th St, New York, NY 10011",10011,(212) 320-8111,,40.73907125194787,-73.99347234232788,Manhattan
Awesum Dimsum,810,"Dim Sum, Cantonese",4.6,"['pickup', 'delivery']","160 E 23rd St, New York, NY 10010",10010,(646) 998-3313,$$,40.7388534,-73.98367370212858,Manhattan
nonono,1290,"Izakaya, Cocktail Bars",4.3,"['delivery', 'pickup']","118 Madison Ave, New York, NY 10016",10016,(646) 707-3227,$$$,40.74541891599005,-73.98492926795281,Manhattan
Chica & The Don,32,"Latin American, Empanadas, Cocktail Bars",4.8,"['pickup', 'delivery']","24 E 21st St, New York, NY 10010",10010,(646) 649-4805,,40.73937189999999,-73.98902559999999,Manhattan
Diner 24,129,"Burgers, Cocktail Bars, Breakfast & Brunch",3.7,"['pickup', 'delivery']","283 3rd Ave, New York, NY 10010",10010,(646) 852-6921,,40.73816790222615,-73.98335999999999,Manhattan
The Factory 380,192,"Bars, New American, Breakfast & Brunch",4.4,"['delivery', 'pickup']","380 3rd Ave, New York, NY 10016",10016,(212) 686-6380,$$,40.74164,-73.98132,Manhattan
Eleni's,228,Greek,4.4,"['pickup', 'delivery']","226 3rd Ave, New York, NY 10003",10003,(212) 982-9030,$$$,40.736601,-73.985085,Manhattan
Scarpetta,2392,"Italian, Bars, Desserts",4.1,['delivery'],"88 Madison Ave, New York, NY 10016",10016,(212) 691-0555,$$$,40.744509,-73.9856,Manhattan
Patrizia's Pizza and Pasta,819,"Italian, Pizza, Caterers",4.1,"['delivery', 'pickup']","462-466 2nd Ave, New York, NY 10016",10016,(212) 597-9999,$$,40.7398415,-73.9792862,Manhattan
Jack Diamond's,12,"New American, Bars",4.7,"['pickup', 'delivery']","140 E 27th St, New York, NY 10016",10016,(646) 398-8157,,40.74167898864579,-73.9824913,Manhattan
The Crooked Knife,48,"Bars, Gastropubs, Breakfast & Brunch",4.1,"['pickup', 'delivery']","540 2nd Ave, New York, NY 10016",10016,(212) 696-4104,,40.742069,-73.977603,Manhattan
Chez Francis,79,"French, Brasseries",4.3,"['pickup', 'delivery']","411 Park Ave S, New York, NY 10016",10016,(212) 567-8282,,40.743553,-73.983503,Manhattan
Coletta,305,"Vegan, Italian, Kosher",4.6,"['pickup', 'delivery']","365 3rd Ave, New York, NY 10016",10016,(646) 861-2889,$$$,40.74094,-73.98139,Manhattan
Banter,56,"Australian, Burgers, Breakfast & Brunch",4.5,"['pickup', 'delivery']","201 East 31st St, New York, NY 10016",10016,(646) 351-6006,,40.743793,-73.979125,Manhattan
Comodo,70,"Latin American, Breakfast & Brunch",4.0,[],"23 Lexington Ave, New York, NY 10010",10010,(212) 475-1924,,40.739799589140155,-73.98430253276572,Manhattan
Tipsy NoMad,58,"Lounges, American, Sports Bars",4.4,['delivery'],"37 E 28th St, New York, NY 10016",10016,(212) 481-3100,,40.743772,-73.984627,Manhattan
Lola's,40,New American,4.6,[],"2 W 28th St, New York, NY 10001",10001,,,40.74481688811193,-73.9878205,Manhattan
The Smith,1504,"New American, Breakfast & Brunch, Cocktail Bars",4.1,['delivery'],"1150 Broadway, New York, NY 10010",10010,(212) 685-4500,$$,40.74424,-73.98878,Manhattan
1915 Lanzhou Hand Pulled Noodles,35,"Noodles, Chinese, Soup",4.5,"['pickup', 'delivery']","207 E 26th St, New York, NY 10016",10016,(917) 828-7384,,40.74052419050578,-73.98091535792065,Manhattan
Sweetbriar,103,"New American, Cocktail Bars, Venues & Event Spaces",4.2,[],"127 E 27th St, New York, NY 10016",10016,(212) 204-0225,$$$,40.7422837,-73.9831629,Manhattan
Sabai Thai,563,"Thai, Cocktail Bars, Seafood",4.3,"['pickup', 'delivery']","432 Park Ave S, New York, NY 10016",10016,(646) 476-4521,$$,40.74422,-73.98365,Manhattan
Rezdôra,796,Italian,4.0,"['pickup', 'delivery']","27 E 20th St, New York, NY 10003",10003,,,40.73901,-73.9891,Manhattan
Hojokban,270,Korean,4.5,[],"128 Madison Ave, Ste 1FL, New York, NY 10016",10016,(646) 454-0008,$$$,40.745736,-73.984795,Manhattan
Chito Gvrito,164,Georgian,4.5,"['pickup', 'delivery']","173 3rd Avenue, New York, NY 10003",10003,(646) 767-0154,,40.734764,-73.985862,Manhattan
Sam Sunny,256,"Korean, Cocktail Bars, Barbeque",4.5,"['pickup', 'delivery']","517 2nd Ave, New York, NY 10016",10016,(212) 837-1044,$$$,40.74156,-73.97846,Manhattan
Boucherie Union Square,1674,"Steakhouses, French, Cocktail Bars",4.4,"['pickup', 'delivery']","225 Park Ave S, New York, NY 10003",10003,(212) 353-0200,$$$,40.73725824850519,-73.9882252705524,Manhattan
Sushi by Scratch Restaurants,1,Sushi Bars,5.0,[],"922 Broadway, New York, NY 10010",10010,(917) 970-0687,,40.739107,-73.982653,Manhattan
Cask,1593,"Bars, New American, Venues & Event Spaces",4.1,"['delivery', 'pickup']","167 E 33rd St, New York, NY 10016",10016,(212) 300-4924,$$$,40.745414,-73.979004,Manhattan
The Gem Saloon,306,"Bars, Breakfast & Brunch, American",4.2,"['delivery', 'pickup']","375 3rd Ave, New York, NY 10016",10016,(646) 612-7757,$$,40.74138,-73.98107,Manhattan
Norma,688,"Pizza, Sicilian",4.4,"['pickup', 'delivery']","438 3rd Ave, New York, NY 10016",10016,(212) 889-0600,$$,40.743553,-73.980026,Manhattan
7th Street Burger,99,"Burgers, Fast Food, New American",4.4,"['pickup', 'delivery']","364 3rd Ave, New York, NY 10016",10016,(646) 478-8453,,40.74115036458325,-73.98184169598186,Manhattan
Soothr,1504,"Thai, Noodles, Cocktail Bars",4.5,"['pickup', 'delivery']","204 E 13th St, New York, NY 10003",10003,(212) 844-9789,$$,40.732259,-73.987363,Manhattan
Moono,194,Korean,4.3,[],"29 E 32nd St, New York, NY 10016",10016,(646) 429-8309,,40.74637,-73.98336,Manhattan
BLACKBARN,749,"New American, Venues & Event Spaces",3.8,"['pickup', 'delivery']","19 E 26th St, New York, NY 10010",10010,(212) 265-5959,$$$,40.7431,-73.9871,Manhattan
Anytime Kitchen ,3089,"Korean, Tapas/Small Plates, Barbeque",4.6,"['delivery', 'pickup']","23 W 32nd St, Fl 3, New York, NY 10001",10001,(646) 669-7733,$$,40.74776270790539,-73.9867793576711,Manhattan
Olio e Più,6172,"Pizza, Italian, Cocktail Bars",4.5,"['pickup', 'delivery']","3 Greenwich Ave, New York, NY 10014",10014,(212) 243-6546,$$,40.73406231935954,-73.99999980859876,Manhattan
Valerie,1107,"New American, Cocktail Bars",4.3,['delivery'],"45 W 45th St between 5th & 6th Ave, New York, NY 10036",10036,(212) 302-4545,$$,40.756326,-73.981117,Manhattan
Bourbon and Branch,153,"Bars, Venues & Event Spaces, American",4.5,[],"155 W 33rd St, New York, NY 10001",10001,(929) 419-4951,,40.75030160000001,-73.9904585,Manhattan
Da Andrea - Chelsea,390,"Italian, Wine Bars, Cocktail Bars",4.7,"['pickup', 'delivery', 'restaurant_reservation']","160 8th Ave, New York, NY 10011",10011,(212) 354-5971,$$$,40.742041,-74.000467,Manhattan
Da Andrea - Greenwich Village,2455,"Italian, Mediterranean, Breakfast & Brunch",4.4,"['delivery', 'restaurant_reservation', 'pickup']","35 W 13th St, New York, NY 10011",10011,(212) 367-1979,$$,40.736287,-73.995865,Manhattan
Konban,285,Izakaya,4.4,[],"311 W 17th St, New York, NY 10011",10011,(917) 675-6070,,40.741979,-74.001592,Manhattan
Zou Zou’s,438,"Mediterranean, Cocktail Bars, New American",4.2,[],"385 9th Ave, Ste 85, New York, NY 10001",10001,(212) 380-8585,$$$,40.75294111375021,-73.99872428597398,Manhattan
Zizi,275,"Mediterranean, Middle Eastern",4.3,"['pickup', 'delivery']","182 8th Ave, New York, NY 10011",10011,(646) 669-8162,,40.74293,-74.00002,Manhattan
Calle Dao Chelsea,1151,"Cuban, Chinese, Asian Fusion",4.5,"['delivery', 'pickup']","461 W 23rd St, New York, NY 10011",10011,(212) 414-4104,$$,40.74765439999999,-74.00352547055276,Manhattan
Pastis,638,French,4.2,"['delivery', 'pickup']","52 Gansevoort St, New York, NY 10014",10014,(212) 929-4844,$$$,40.739245,-74.006992,Manhattan
Don Angie,948,"Italian, New American",4.5,['delivery'],"103 Greenwich Ave, New York, NY 10014",10014,(212) 889-8884,$$$,40.73778,-74.00197,Manhattan
Thai Villa,5127,Thai,4.4,"['delivery', 'pickup']","5 E 19th St, G Floor, New York, NY 10003",10003,(212) 802-9999,$$,40.73902,-73.99065,Manhattan
RH Rooftop Restaurant New York,990,"American, Wine Bars",4.1,[],"9 9th Ave, New York, NY 10014",10014,(212) 217-2210,$$$,40.73985,-74.00639,Manhattan
Cookshop,2409,"New American, Breakfast & Brunch, Cocktail Bars",4.0,"['delivery', 'pickup']","156 10th Ave, New York, NY 10011",10011,(212) 924-4440,$$,40.74573188144824,-74.00540454907613,Manhattan
Merchants NY,8,"Lounges, American",4.3,[],"190 7th Ave, New York, NY 10011",10011,(212) 366-7267,$$$,40.74304,-73.99665,Manhattan
Her Name Is Han,2100,"Korean, Breakfast & Brunch",4.3,"['delivery', 'pickup']","17 E 31st St, New York, NY 10016",10016,(212) 779-9990,$$,40.7462615966797,-73.984733581543,Manhattan
Osamil,827,"Korean, Gastropubs, Tapas/Small Plates",4.3,['delivery'],"5 West 31st St, New York, NY 10001",10001,(212) 300-4713,$$$,40.74697,-73.9864,Manhattan
Leitao,201,"Portuguese, Cocktail Bars, Beer, Wine & Spirits",4.7,"['delivery', 'pickup']","547 Hudson St, New York, NY 10014",10014,(212) 810-9944,$$$,40.73495,-74.00628,Manhattan
La Grande Boucherie,3677,"French, Steakhouses, Cocktail Bars",4.4,"['delivery', 'pickup']","145 W 53rd St, New York, NY 10019",10019,(212) 510-7714,$$$,40.7626274,-73.98084109999999,Manhattan
Counter & Bodega,327,"Latin American, Puerto Rican",4.2,"['pickup', 'delivery']","216 7th Ave, New York, NY 10011",10011,(646) 870-0785,$$,40.74382426335628,-73.99627610328074,Manhattan
Izakaya MEW,3110,"Tapas Bars, Sushi Bars, Izakaya",4.3,"['delivery', 'pickup']","53 W 35th St, New York, NY 10001",10001,(646) 368-9384,$$,40.750148,-73.9863203465939,Manhattan
Loulou Petit Bistro & Speakeasy,631,"French, Cocktail Bars",3.9,"['delivery', 'pickup']","176 8th Ave, New York, NY 10011",10011,(212) 337-9577,$$,40.742627091934104,-74.00005776653397,Manhattan
Shukette,521,Middle Eastern,4.4,['delivery'],"230 9th Ave, New York, NY 10001",10001,(212) 242-1803,$$$$,40.74745,-74.00041,Manhattan
Little Maven,60,"New American, Pasta Shops, Cocktail Bars",4.7,[],"30 W 18th St, New York, NY 10011",10011,(212) 320-8111,,40.73907125194787,-73.99347234232788,Manhattan
Friedman's,3171,"New American, Breakfast & Brunch, Wine Bars",4.0,"['delivery', 'pickup']","132 W 31st St, New York, NY 10001",10001,(212) 971-9400,$$,40.748298,-73.990737,Manhattan
Westville,1287,"New American, Salad",4.0,"['delivery', 'pickup']","88 7th Ave, New York, NY 10011",10011,(212) 924-2223,$$,40.73954,-73.999211,Manhattan
Chama Mama,802,"Georgian, Wine Bars, Cocktail Bars",4.4,"['delivery', 'pickup']","149 W 14th St, New York, NY 10011",10011,(646) 438-9007,$$$,40.7384,-73.99892,Manhattan
Jack's Wife Freda,431,"Breakfast & Brunch, Desserts, Sandwiches",3.9,"['delivery', 'pickup']","116 8th Ave, New York, NY 10011",10011,(646) 454-9045,$$,40.74091,-74.00146,Manhattan
Coppelia,1641,"Cuban, Latin American, Bars",4.0,"['delivery', 'pickup']","207 W 14th St, New York, NY 10011",10011,(212) 858-5001,$$,40.7389111700125,-73.9999985153443,Manhattan
Hao Noodle Chelsea,681,"Shanghainese, Dim Sum, Szechuan",4.3,"['delivery', 'pickup']","343 W 14th St, New York, NY 10014",10014,(646) 882-0059,$$,40.7408,-74.00429,Manhattan
Very Fresh Noodles,1642,"Taiwanese, Chinese, Noodles",4.4,"['delivery', 'pickup']","409 W 15th St, New York, NY 10011",10011,(332) 215-6161,$$,40.74207,-74.00565,Manhattan
Nubiani,341,"Korean, Barbeque",4.5,"['delivery', 'pickup']","315 5th Ave, Fl 3, New York, NY 10016",10016,(917) 623-0807,,40.74700575561414,-73.9854169149663,Manhattan
NBetween,46,"Cocktail Bars, Izakaya, Speakeasies",4.3,[],"443 W 15th St, New York, NY 10011",10011,(347) 542-8627,,40.74275435037327,-74.00694519999999,Manhattan
Ci Siamo,618,"Italian, Bars, Pizza",4.4,[],"440 West 33rd St, Ste 100, New York, NY 10001",10001,(212) 219-6559,$$$,40.75240549384363,-73.9982864846782,Manhattan
Obao,4335,"Vietnamese, Thai, Asian Fusion",4.0,"['delivery', 'pickup']","647 9th Ave, New York, NY 10036",10036,(212) 245-8880,$$,40.7606544,-73.991332,Manhattan
The Canuck,41,"Burgers, Sports Bars, Sandwiches",4.4,"['delivery', 'pickup']","202 9th Ave, New York, NY 10011",10011,,,40.74599059521316,-74.00140899868893,Manhattan
Amélie,2968,"French, Wine Bars",4.3,"['delivery', 'pickup']","22 W 8th St, New York, NY 10011",10011,(212) 533-2962,$$$,40.7327,-73.99766,Manhattan
Lulla,76,"Italian, Breakfast & Brunch, Cocktail Bars",4.3,[],"113 W 24th St, New York, NY 10011",10011,(929) 588-8556,,40.74412361013777,-73.99299409999999,Manhattan
Alligator Pear,229,"Cocktail Bars, New American",4.2,[],"150 W 30th St, New York, NY 10001",10001,(646) 868-7884,,40.74814,-73.99191,Manhattan
Buddakan,4786,"Chinese, Bars, Asian Fusion",4.1,"['delivery', 'pickup']","75 9th Ave, New York, NY 10011",10011,(212) 989-6699,$$$$,40.7422762672197,-74.0048000961542,Manhattan
Gurumé,207,"Korean, Tapas/Small Plates, Cocktail Bars",4.7,"['delivery', 'pickup']","313 W 46th St, New York, NY 10036",10036,(917) 388-2017,,40.760301,-73.988564,Manhattan
The Mermaid Inn - Chelsea,168,"Seafood, New American, Cocktail Bars",4.4,"['delivery', 'pickup']","227 10th Ave, New York, NY 10011",10011,(212) 999-5939,$$$,40.74813167,-74.00410833,Manhattan
Kame,896,"Ramen, Japanese Curry, Salad",4.5,"['delivery', 'pickup']","330 8th Ave, New York, NY 10001",10001,(917) 391-8587,$$,40.7474881059799,-73.996648862958,Manhattan
Sappe,208,"Thai, Bars, Barbeque",4.3,"['delivery', 'pickup']","240 W 14th St, New York, NY 10011",10011,(212) 466-6361,$$$,40.73913928385963,-74.00180350332299,Manhattan
The Wilson,425,"New American, Breakfast & Brunch, Bars",4.1,"['pickup', 'delivery']","132 W 27th St, New York, NY 10001",10001,(212) 529-2671,$$,40.745879,-73.992648,Manhattan
Citizens Of Chelsea,1107,"Coffee & Tea, Breakfast & Brunch, Australian",4.2,"['delivery', 'pickup']","401 W 25th St, New York, NY 10001",10001,(347) 554-7496,$$,40.748099827409895,-74.000569,Manhattan
The Parlour Room,179,"Cocktail Bars, Seafood, Tapas/Small Plates",4.3,"['delivery', 'pickup']","70 W 36th St, 1A, New York, NY 10018",10018,(917) 261-5495,$$,40.75066199820444,-73.986111391996,Manhattan
The Warren,306,Gastropubs,4.1,"['delivery', 'pickup']","131 Christopher St, New York, NY 10014",10014,(212) 243-1311,$$,40.7331,-74.0067,Manhattan
nonono,1290,"Izakaya, Cocktail Bars",4.3,"['delivery', 'pickup']","118 Madison Ave, New York, NY 10016",10016,(646) 707-3227,$$$,40.74541891599005,-73.98492926795281,Manhattan
Odd Sister,72,"Cocktail Bars, Diners, Coffee & Tea",4.3,"['pickup', 'delivery']","45 Mercer St, New York, NY 10013",10013,(212) 966-9288,,40.721695,-74.001446,Manhattan
Olio e Più,6172,"Pizza, Italian, Cocktail Bars",4.5,"['pickup', 'delivery']","3 Greenwich Ave, New York, NY 10014",10014,(212) 243-6546,$$,40.73406231935954,-73.99999980859876,Manhattan
Raku,1067,"Japanese, Noodles",4.5,"['pickup', 'delivery']","48 Macdougal St, New York, NY 10012",10012,(212) 989-4797,$$,40.7272479,-74.00253944171621,Manhattan
Rubirosa,3479,"Italian, Pizza",4.3,['pickup'],"235 Mulberry St, New York, NY 10012",10012,(212) 965-0500,$$,40.722766,-73.996233,Manhattan
The Folly,279,"Seafood, Gastropubs",4.3,"['pickup', 'delivery']","92 W Houston St, New York, NY 10012",10012,(646) 726-4740,$$,40.72731,-73.99996,Manhattan
Ye's Apothecary 夜莺,797,"Szechuan, Speakeasies",4.6,[],"119 Orchard St, New York, NY 10002",10002,(929) 655-2515,$$,40.71945,-73.9898,Manhattan
Shuka,1131,"Mediterranean, Cocktail Bars, Breakfast & Brunch",4.3,"['pickup', 'delivery']","38 MacDougal St, New York, NY 10012",10012,(212) 475-7500,$$,40.72707,-74.00283,Manhattan
Blue Ribbon Brasserie,1045,"American, Cocktail Bars, Desserts",4.3,"['pickup', 'delivery']","97 Sullivan St, New York, NY 10012",10012,(212) 274-0404,$$$,40.72548811686033,-74.003027,Manhattan
Torrisi,293,Italian,4.5,[],"275 Mulberry St, New York, NY 10012",10012,(212) 254-3000,$$$$,40.72428598821748,-73.9954023,Manhattan
Fish Cheeks,1731,"Seafood, Thai, Live/Raw Food",4.4,"['pickup', 'delivery']","55 Bond St, New York, NY 10012",10012,(212) 677-2223,$$,40.7258,-73.9927,Manhattan
Sartiano's,95,Italian,4.4,[],"99 Prince St, New York, NY 10012",10012,(212) 658-1155,$$$$,40.724810382008485,-73.99865347261444,Manhattan
Bad Hombre,16,Mexican,4.8,[],"29 Second Ave, New York, NY 10003",10003,(212) 677-1030,,40.724695,-73.990888,Manhattan
Mareluna,122,"Italian, Breakfast & Brunch, Cocktail Bars",4.4,"['pickup', 'delivery']","137 Sullivan St, New York, NY 10012",10012,(212) 510-7774,,40.726787,-74.001836,Manhattan
Amélie,2968,"French, Wine Bars",4.3,"['pickup', 'delivery']","22 W 8th St, New York, NY 10011",10011,(212) 533-2962,$$$,40.7327,-73.99766,Manhattan
Lava Shawarma,53,Middle Eastern,4.3,"['pickup', 'delivery']","226 Thompson St, New York, NY 10012",10012,(646) 490-5080,,40.729184,-73.998725,Manhattan
C as in Charlie,337,"Korean, Tapas/Small Plates, Southern",4.5,[],"5 Bleecker St, New York, NY 10012",10012,,,40.72545,-73.99269,Manhattan
Carbone,1944,Italian,4.0,[],"181 Thompson St, New York, NY 10012",10012,(212) 254-3000,$$$$,40.72800126711089,-74.00024274442806,Manhattan
White Oak Tavern,484,"New American, Whiskey Bars, Cocktail Bars",4.2,"['pickup', 'delivery']","21 Waverly Pl, New York, NY 10003",10003,(212) 260-2604,$$,40.7303892,-73.99462,Manhattan
Dante,728,"Cocktail Bars, Italian, Breakfast & Brunch",4.0,['delivery'],"79-81 Macdougal St, New York, NY 10012",10012,(212) 982-5275,$$,40.7288561,-74.00177181257429,Manhattan
Jack's Wife Freda,2592,"Breakfast & Brunch, Mediterranean, New American",3.9,['delivery'],"226 Lafayette St, New York, NY 10012",10012,(212) 510-8550,$$,40.7221323,-73.9975402,Manhattan
Da Toscano,201,Italian,4.6,"['pickup', 'delivery']","24 Minetta Ln, New York, NY 10012",10012,(212) 606-4054,,40.730508,-74.001238,Manhattan
Boqueria Soho,1302,"Spanish, Tapas Bars, Tapas/Small Plates",4.1,"['pickup', 'delivery']","171 Spring St, New York, NY 10012",10012,(212) 343-4255,$$$,40.7249227818105,-74.00215536627918,Manhattan
Balthazar,3813,"French, Breakfast & Brunch",4.0,"['pickup', 'delivery']","80 Spring St, New York, NY 10012",10012,(212) 965-1414,$$$,40.722675,-73.998285,Manhattan
Banter,735,"Breakfast & Brunch, Coffee & Tea, Sandwiches",4.3,"['pickup', 'delivery']","169 Sullivan St, New York, NY 10012",10012,,$$,40.72787,-74.0010999,Manhattan
5ive Spice,894,"Vietnamese, Tacos, Sandwiches",4.6,"['pickup', 'delivery']","227 Mulberry St, New York, NY 10012",10012,(917) 409-2605,$$,40.722598,-73.996272,Manhattan
Milady’s,53,"Bars, American",4.3,[],"162 Prince St, New York, NY 10012",10012,(212) 226-9069,,40.725979686346335,-74.0015954,Manhattan
Thai Diner,1015,Thai,4.2,['delivery'],"186 Mott St, New York, NY 10012",10012,(646) 559-4140,$$,40.72071042964739,-73.9956057,Manhattan
Piccola Cucina Osteria,860,Italian,4.3,"['pickup', 'delivery']","196 Spring St, New York, NY 10012",10012,(646) 478-7488,$$,40.72503127956934,-74.0032820972858,Manhattan
Pommes Frites,1176,"Belgian, Specialty Food, Poutineries",4.4,"['pickup', 'delivery']","128 Macdougal St, New York, NY 10012",10012,(212) 674-1234,$$,40.7300774,-74.00021711901437,Manhattan
Yakiniku Futago Soho,9,Japanese,4.7,[],"341 W Broadway, New York, NY 10013",10013,(917) 965-2212,,40.72256,-74.00345,Manhattan
Chow House 德悦轩,720,"Szechuan, Noodles, Soup",4.4,"['pickup', 'restaurant_reservation', 'delivery']","181 Bleecker St, New York, NY 10012",10012,(212) 837-1021,$$,40.72908,-74.00078,Manhattan
Blue Ribbon Sushi,1298,"Sushi Bars, Japanese",4.1,['pickup'],"119 Sullivan St, New York, NY 10012",10012,(212) 343-0404,$$,40.726083,-74.002402,Manhattan
Prince Street Pizza,5462,Pizza,4.3,"['pickup', 'delivery']","27 Prince Street, New York, NY 10012",10012,(212) 966-4100,$,40.72308755605564,-73.99453001177575,Manhattan
Tucci,56,"Cocktail Bars, Italian",3.9,[],"643 Broadway, New York, NY 10012",10012,(917) 831-1401,,40.726707855060745,-73.9959191,Manhattan
DOMODOMO - New York,1663,"Japanese, Sushi Bars",4.2,['delivery'],"140 W Houston St, New York, NY 10012",10012,(646) 707-0301,$$$,40.7280299,-74.00167,Manhattan
La Lanterna Di Vittorio,1751,"Italian, Cafes, Pizza",4.2,"['pickup', 'delivery']","129 MacDougal St, New York, NY 10012",10012,(917) 639-3236,$$,40.73069,-74.00015,Manhattan
The Standard East Village,4,Pop-Up Restaurants,4.8,[],"25 Cooper Sq, New York, NY 10003",10003,(212) 475-5700,,40.7278622696929,-73.99082132730517,Manhattan
Ways & Means,29,"Tapas/Small Plates, Cocktail Bars",4.6,"['pickup', 'delivery']","167 Bleecker St, New York, NY 10012",10012,(973) 798-9486,,40.7288609,-74.0001048,Manhattan
Carroll Place,1345,"Italian, Venues & Event Spaces, Cocktail Bars",4.0,"['pickup', 'delivery']","157 Bleecker St, New York, NY 10012",10012,(212) 260-1700,$$,40.7287,-73.99971,Manhattan
The Corner Store,21,"Seafood, American, Cocktail Bars",4.3,[],"475 W Broadway, New York, NY 10012",10012,(212) 271-9240,,40.726633,-73.999918,Manhattan
Raku,1729,"Japanese, Noodles",4.4,"['pickup', 'delivery']","342 E 6th St, New York, NY 10003",10003,(212) 228-1324,$$,40.7264988089246,-73.9866526052356,Manhattan
Balzem,576,"Mediterranean, Tapas/Small Plates, Wine Bars",4.0,"['pickup', 'delivery', 'restaurant_reservation']","202 Mott St, New York, NY 10012",10012,(646) 837-7033,$$$,40.721377,-73.995389,Manhattan
La Pecora Bianca SoHo,290,"Mediterranean, Italian, Breakfast & Brunch",4.1,['delivery'],"54 Prince St, New York, NY 10012",10012,(212) 380-8202,$$$,40.72347420863732,-73.9963118,Manhattan
Little Ruby's Cafe - Soho,1704,"Burgers, Coffee & Tea, Breakfast & Brunch",4.2,"['pickup', 'delivery']","219 Mulberry St, New York, NY 10012",10012,(212) 925-5755,$$,40.7223,-73.99623,Manhattan
Kalye- Broome,235,Filipino,4.6,"['pickup', 'restaurant_reservation', 'delivery']","251 Broome St, New York, NY 10002",10002,(646) 422-7267,$$,40.7179,-73.98999,Manhattan
12 Chairs,1026,"Middle Eastern, American, Breakfast & Brunch",3.9,"['pickup', 'delivery']","56 MacDougal St, New York, NY 10012",10012,(212) 254-8640,$$,40.72759,-74.0024,Manhattan
Two Hands,106,"Cafes, Breakfast & Brunch, New American",4.2,"['pickup', 'delivery']","74 Bleecker St, New York, NY 10012",10012,(646) 466-0960,,40.726306014451026,-73.9956844,Manhattan
La Sirene,1751,"French, Wine Bars, Fondue",4.3,"['pickup', 'delivery']","558 Broome St, New York, NY 10013",10013,(212) 925-3061,$$$,40.7243642217227,-74.005708694458,Manhattan
Bar Tulix,71,"Mexican, Seafood",3.9,"['pickup', 'delivery']","25 W Houston St, New York, NY 10012",10012,(212) 334-7320,,40.72577,-73.99808,Manhattan
Los Tacos No.1,245,Tacos,4.6,[],"340 Lafayette St, New York, NY 10012",10012,,$,40.726157,-73.9946634,Manhattan
WarrenPeace,46,"Cocktail Bars, Mediterranean",4.7,[],"77 Warren St, New York, NY 10007",10007,(845) 592-5334,$$,40.715022,-74.010284,Manhattan
Odd Sister,72,"Cocktail Bars, Diners, Coffee & Tea",4.3,"['pickup', 'delivery']","45 Mercer St, New York, NY 10013",10013,(212) 966-9288,,40.721695,-74.001446,Manhattan
Lindens,175,New American,4.7,"['pickup', 'delivery']","2 Renwick St, New York, NY 10013",10013,(929) 595-7706,,40.72418,-74.00837,Manhattan
Anejo Tribeca,723,"Mexican, Tapas/Small Plates, Tapas Bars",4.1,"['pickup', 'delivery']","301 Church St, New York, NY 10013",10013,(212) 920-6270,$$,40.71931499731559,-74.00427174111186,Manhattan
Macao Trading Company,898,"Asian Fusion, Portuguese, Chinese",3.8,"['pickup', 'delivery']","311 Church St, New York, NY 10013",10013,(212) 431-8642,$$$,40.719623,-74.003904,Manhattan
Beefbar,49,"Steakhouses, Bars, Comfort Food",4.1,[],"105 Hudson St, New York, NY 10013",10013,(646) 663-6050,,40.719582,-74.008834,Manhattan
Au Cheval,1122,"Burgers, New American, Cocktail Bars",4.3,[],"33 Cortlandt Aly, New York, NY 10013",10013,(646) 350-2429,$$$,40.71812171604106,-74.00196237391103,Manhattan
Lucia of Soho,143,Pizza,4.3,"['pickup', 'delivery']","375 Canal St, New York, NY 10013",10013,(917) 965-2900,,40.721416405112784,-74.0043748,Manhattan
Blue Ribbon Brasserie,1045,"American, Cocktail Bars, Desserts",4.3,"['pickup', 'delivery']","97 Sullivan St, New York, NY 10012",10012,(212) 274-0404,$$$,40.72548811686033,-74.003027,Manhattan
A Pasta Bar,617,"Italian, Bars",4.0,"['pickup', 'delivery']","330 W Broadway, New York, NY 10013",10013,(646) 762-4056,$$$,40.72229,-74.00403,Manhattan
Yakiniku Futago Soho,9,Japanese,4.7,[],"341 W Broadway, New York, NY 10013",10013,(917) 965-2212,,40.72256,-74.00345,Manhattan
La Sirene,1751,"French, Wine Bars, Fondue",4.3,"['pickup', 'delivery']","558 Broome St, New York, NY 10013",10013,(212) 925-3061,$$$,40.7243642217227,-74.005708694458,Manhattan
Paros,36,Greek,3.8,"['pickup', 'delivery']","211 W Broadway, New York, NY 10013",10013,(212) 510-7453,,40.718983,-74.006227,Manhattan
Little Ways,91,American,3.8,"['pickup', 'delivery']","343 W Broadway, New York, NY 10013",10013,(212) 991-8175,,40.722622,-74.0033741,Manhattan
Smith & Mills,322,"Lounges, New American",3.7,"['pickup', 'delivery']","71 N Moore St, New York, NY 10013",10013,(646) 858-1433,$$,40.72018,-74.00991,Manhattan
Pepolino Restaurant,673,Tuscan,4.3,"['pickup', 'delivery']","281 W Broadway, New York, NY 10013",10013,(212) 966-9983,$$$,40.720756,-74.004885,Manhattan
Locanda Verde,1911,"Italian, Cocktail Bars, Breakfast & Brunch",3.9,"['pickup', 'delivery']","377 Greenwich St, New York, NY 10013",10013,(212) 925-3797,$$$,40.7198601300801,-74.010039072422,Manhattan
Black Burger,401,Burgers,3.9,"['pickup', 'delivery']","386 Canal St, New York, NY 10013",10013,(212) 431-7651,$$,40.72137863336611,-74.00492808956233,Manhattan
Raku,1067,"Japanese, Noodles",4.5,"['pickup', 'delivery']","48 Macdougal St, New York, NY 10012",10012,(212) 989-4797,$$,40.7272479,-74.00253944171621,Manhattan
Marc Forgione,1052,New American,4.3,"['pickup', 'delivery']","30 Hudson St, New York, NY 10013",10013,(212) 941-9401,$$$,40.71667,-74.00899,Manhattan
Zutto Japanese American Pub,1126,"Sushi Bars, Ramen, Cocktail Bars",4.0,"['pickup', 'delivery']","77 Hudson St, New York, NY 10013",10013,(212) 233-3287,$$,40.71847,-74.00903,Manhattan
Rubirosa,3479,"Italian, Pizza",4.3,['pickup'],"235 Mulberry St, New York, NY 10012",10012,(212) 965-0500,$$,40.722766,-73.996233,Manhattan
Walker's,353,"Diners, Breakfast & Brunch, Pubs",3.8,"['pickup', 'delivery']","16 N Moore St, New York, NY 10013",10013,(212) 941-0142,$$,40.71972,-74.00707,Manhattan
Tara Kitchen - Tribeca New York,61,"Moroccan, Mediterranean, Seafood",4.2,"['pickup', 'delivery']","253 Church St, New York, NY 10013",10013,(212) 226-4400,,40.71791,-74.00539,Manhattan
Two Hands,401,"Breakfast & Brunch, Australian, Cocktail Bars",3.8,"['pickup', 'delivery']","251 Church St, New York, NY 10013",10013,(646) 718-5619,$$,40.71782,-74.00547,Manhattan
Balthazar,3813,"French, Breakfast & Brunch",4.0,"['pickup', 'delivery']","80 Spring St, New York, NY 10012",10012,(212) 965-1414,$$$,40.722675,-73.998285,Manhattan
Piccola Cucina Osteria,860,Italian,4.3,"['pickup', 'delivery']","196 Spring St, New York, NY 10012",10012,(646) 478-7488,$$,40.72503127956934,-74.0032820972858,Manhattan
Shuka,1131,"Mediterranean, Cocktail Bars, Breakfast & Brunch",4.3,"['pickup', 'delivery']","38 MacDougal St, New York, NY 10012",10012,(212) 475-7500,$$,40.72707,-74.00283,Manhattan
Filé Gumbo Bar,249,"Cajun/Creole, Venues & Event Spaces, Cocktail Bars",4.0,"['pickup', 'delivery']","275 Church St, New York, NY 10013",10013,(646) 851-0810,$$$,40.71850573859628,-74.0048807036876,Manhattan
Despaña Fine Foods & Tapas Cafe,618,Spanish,4.4,"['pickup', 'delivery']","408 Broome St, New York, NY 10013",10013,(212) 219-5050,$$,40.721094,-73.9978255,Manhattan
Bubby's Tribeca,2272,"American, Breakfast & Brunch, Sandwiches",3.8,"['restaurant_reservation', 'pickup', 'delivery']","120 Hudson St, New York, NY 10013",10013,(212) 219-0666,$$,40.7198118,-74.0083092,Manhattan
Gotan - Tribeca,474,"Cafes, Breakfast & Brunch, Desserts",4.0,"['pickup', 'delivery']","130 Franklin St, New York, NY 10013",10013,(212) 431-5200,$$,40.719255,-74.006607,Manhattan
Artesano Peruvian Cuisine,163,"Peruvian, Bars",4.5,[],"90 Chambers St, New York, NY 10007",10007,(212) 372-0297,,40.714477664263505,-74.0074549,Manhattan
Maison Close Restaurant,101,French,4.0,[],"15 Watts St, New York, NY 10013",10013,(347) 919-5063,,40.723292,-74.003632,Manhattan
Betong - Khao Man Gai,146,"Thai, Halal",4.6,"['pickup', 'delivery']","261 Canal St, New York, NY 10013",10013,(347) 386-8032,$$,40.71893,-74.00095,Manhattan
Soho Diner,289,"Diners, Cocktail Bars, Breakfast & Brunch",3.4,"['pickup', 'delivery']","320 West Broadway, New York, NY 10013",10013,(212) 965-3011,$$,40.722119,-74.004273,Manhattan
The Odeon,834,"New American, French, Italian",3.9,"['pickup', 'delivery']","145 W Broadway, New York, NY 10013",10013,(212) 233-0507,$$$,40.71692,-74.00792,Manhattan
Casa Carmen,68,Mexican,4.0,"['pickup', 'delivery']","114 Franklin St, New York, NY 10013",10013,(917) 540-5500,,40.718705771624705,-74.00606353625375,Manhattan
Torrisi,293,Italian,4.5,[],"275 Mulberry St, New York, NY 10012",10012,(212) 254-3000,$$$$,40.72428598821748,-73.9954023,Manhattan
Jack's Wife Freda,2592,"Breakfast & Brunch, Mediterranean, New American",3.9,['delivery'],"226 Lafayette St, New York, NY 10012",10012,(212) 510-8550,$$,40.7221323,-73.9975402,Manhattan
Boqueria Soho,1302,"Spanish, Tapas Bars, Tapas/Small Plates",4.1,"['pickup', 'delivery']","171 Spring St, New York, NY 10012",10012,(212) 343-4255,$$$,40.7249227818105,-74.00215536627918,Manhattan
The Tyger,536,"Cocktail Bars, Noodles, Pan Asian",4.2,"['pickup', 'delivery']","1 Howard St, New York, NY 10013",10013,(646) 355-8693,$$$,40.7189,-73.99942,Manhattan
1803 Nyc,849,"Cajun/Creole, Seafood, Bars",4.2,"['pickup', 'delivery']","82 Reade St, New York, NY 10007",10007,(212) 267-3000,$$,40.715498,-74.007178,Manhattan
Thai Diner,1015,Thai,4.2,['delivery'],"186 Mott St, New York, NY 10012",10012,(646) 559-4140,$$,40.72071042964739,-73.9956057,Manhattan
Mishik,33,"Japanese, Bars, Sushi Bars",4.6,"['pickup', 'delivery']","259A Hudson St, New York, NY 10013",10013,(347) 929-7878,,40.72487,-74.00802,Manhattan
Argo Tribeca,39,"Mediterranean, Greek",4.5,"['pickup', 'delivery']","181 Duane St, New York, NY 10013",10013,(646) 649-4149,,40.71755,-74.01013,Manhattan
Joe's Shanghai,7490,"Shanghainese, Seafood, Noodles",3.8,"['pickup', 'delivery']","46 Bowery St, New York, NY 10013",10013,(212) 233-8888,$$,40.7156608,-73.9967012,Manhattan
Brandy Library,700,"New American, Lounges, Wine Bars",4.0,['delivery'],"25 N Moore St, New York, NY 10013",10013,(212) 226-5545,$$$,40.720073,-74.007227,Manhattan
City Vineyard,1237,"Wine Bars, New American, Venues & Event Spaces",4.0,"['pickup', 'delivery']","233 West St, New York, NY 10013",10013,(646) 677-8350,$$$,40.7205582,-74.0118093,Manhattan
Toad Hall,126,"Pubs, New American",4.0,['pickup'],"57 Grand St, New York, NY 10013",10013,(212) 431-8145,$$,40.722114,-74.003608,Manhattan
Olio e Più,6172,"Pizza, Italian, Cocktail Bars",4.5,"['pickup', 'delivery']","3 Greenwich Ave, New York, NY 10014",10014,(212) 243-6546,$$,40.73406231935954,-73.99999980859876,Manhattan
Leitao,201,"Portuguese, Cocktail Bars, Beer, Wine & Spirits",4.7,"['delivery', 'pickup']","547 Hudson St, New York, NY 10014",10014,(212) 810-9944,$$$,40.73495,-74.00628,Manhattan
Da Andrea - Greenwich Village,2455,"Italian, Mediterranean, Breakfast & Brunch",4.4,"['delivery', 'restaurant_reservation', 'pickup']","35 W 13th St, New York, NY 10011",10011,(212) 367-1979,$$,40.736287,-73.995865,Manhattan
While We Were Young,485,"New American, Cocktail Bars",4.1,['delivery'],"183 W 10th St, New York, NY 10014",10014,(917) 675-6272,$$,40.73437,-74.00272,Manhattan
